,city,city_latitude,city_longitude
0,Southern Pines,35.1740471,-79.3922539
1,Spokane Valley,47.6571104,-117.2613936
2,Los Angeles,34.0536909,-118.242766
3,Dallas,32.7762719,-96.7968559
4,Palm Bay,27.9946969,-80.6366144
5,Philadelphia,39.9527237,-75.1635262
6,POINCIANA,28.1743275,-81.49322346187505
7,Memphis,35.1460249,-90.0517638
8,Mason City,43.1524574,-93.2017941
9,Houston,29.7589382,-95.3676974
10,Flushing,40.7654301,-73.8174291
11,Pembroke Pines,26.0031465,-80.223937
12,Eugene,44.0505054,-123.0950506
13,Brooklyn,40.6526006,-73.9497211
14,Fort Lauderdale,26.1223084,-80.1433786
15,New York,40.7127281,-74.0060152
16,Tomball,30.0971621,-95.6160549
17,Palmdale,34.5793131,-118.1171108
18,Bend,44.0581728,-121.3153096
19,Miami Beach,25.7929198,-80.1353006
20,Spring,30.0798826,-95.4172549
21,Killeen,31.1171441,-97.727796
22,Washington,38.8950368,-77.0365427
23,Miami,25.7741728,-80.19362
24,Davie,35.9375154,-80.5464948
25,Tampa,27.9477595,-82.458444
26,Pt Saint Lucie,27.2939333,-80.3503283
27,North Miami Beach,25.9331488,-80.1625463
28,Jacksonville,30.3321838,-81.655651
29,Charlotte,35.2272086,-80.8430827
30,Fresno,36.7394421,-119.7848307
31,ROTONDA WEST,26.879438999999998,-82.28068480902428
32,San Diego,32.7174202,-117.1627728
33,Weston,51.3471927,-2.9778916
34,Las Vegas,36.1672559,-115.148516
35,Sylmar,34.3076252,-118.4492148
36,Tyler,32.3512601,-95.3010624
37,Fort Worth,32.753177,-97.3327459
38,Signal Mountain,35.1223478,-85.3436973
39,Glendale,34.1469416,-118.2478471
40,Palm Coast,29.5541432,-81.2207673
41,Beechhurst,40.7914903,-73.8045781
42,Portland,45.5202471,-122.674194
43,Hapeville,33.660109,-84.4102046
44,Woodway,31.5059105,-97.2050856
45,Durham,35.996653,-78.9018053
46,Hernando Beach,28.4767735,-82.65917292611684
47,Temple Terrace,28.0352964,-82.3892596
48,Plantation,26.1275862,-80.2331036
49,Atlanta,33.7489924,-84.3902644
50,San Antonio,29.4246002,-98.4951405
51,Cleveland,41.4996574,-81.6936772
52,Chicago,41.8755616,-87.6244212
53,Lakewood,39.7085736,-105.0846694
54,Waco,31.549333,-97.1466695
55,Seattle,47.6038321,-122.330062
56,PORT CHARLOTTE,26.982419999999998,-82.10688734598534
57,Saint Johns,29.9032284,-81.4145468
58,Kissimmee,28.2918995,-81.4075838
59,Boston,42.3554334,-71.060511
60,Spokane,47.6571934,-117.42351
61,The Woodlands,30.1734194,-95.504686
62,Port Saint Lucie,27.2939333,-80.3503283
63,Panama City Beach,30.1765914,-85.805386
64,Kew Gardens,51.478197449999996,-0.2968860852596966
65,Port Charlotte,26.982419999999998,-82.10688734598534
66,Bloomington,39.1670396,-86.5342881
67,ORLANDO,28.5421109,-81.3790304
68,Burien,47.469918,-122.3485274
69,Mint Hill,35.1735388,-80.6570377
70,Lauderdale Lakes,26.16715525,-80.20493869767097
71,Lauderhill,26.1403635,-80.2133808
72,Columbus,39.9622601,-83.0007065
73,Valley View,33.4881671,-97.1650129
74,Lakeway,30.3644888,-97.9875325
75,Coral Gables,25.72149,-80.2683838
76,Westlake,32.991226,-97.1943701
77,North Hollywood,34.1649502,-118.3747521
78,McKinney,33.1976496,-96.6154471
79,San Jose,37.3361663,-121.890591
80,Bayside,40.7684351,-73.7770774
81,Cape Coral,26.6059432,-81.9806771
82,Huntington Beach,33.6783336,-118.0000166
83,Worcester,42.2625621,-71.8018877
84,Austin,30.2711286,-97.7436995
85,Nashville,36.1622767,-86.7742984
86,Chattanooga,35.0457219,-85.3094883
87,West Valley City,40.6967254,-111.986821
88,Orlando,28.5421109,-81.3790304
89,Indianapolis,39.7683331,-86.1583502
90,Poinciana,28.1743275,-81.49322346187505
91,Detroit,42.3315509,-83.0466403
92,Adel,41.6174123,-94.0185176
93,Jamaica,18.1850507,-77.3947693
94,Hollywood,34.0980031,-118.329523
95,El Paso,31.7550511,-106.4882345
96,ST PETERSBURG,27.7703796,-82.6695085
97,Saint Pete Beach,27.7253065,-82.741212
98,College Station,30.5955289,-96.3071042
99,Ocala,29.1871986,-82.1400923
100,Sacramento,38.5810606,-121.493895
101,Circleville,39.508328,-95.858599
102,Grand Prairie,32.7459645,-96.9977846
103,Clearwater,27.9658533,-82.8001026
104,Reno,39.5261206,-119.8126581
105,West Palm Beach,26.715364,-80.0532942
106,Bronx,40.8466508,-73.8785937
107,Hialeah,25.8575963,-80.2781057
108,Moultrie,39.6391442,-88.6087498
109,Athens,37.9839412,23.7283052
110,Lehigh Acres,26.6091509,-81.652407
111,Pineville,36.7620301,-83.6949176
112,Pottstown,40.2452976,-75.6496424
113,Kingsport,36.550238,-82.5594293
114,Staten Island,40.5834557,-74.1496048
115,Saint Petersburg,27.7703796,-82.6695085
116,Tallahassee,30.4380832,-84.2809332
117,Amarillo,35.2072185,-101.833824
118,Temple,31.098207,-97.3427847
119,Parkland,26.3100794,-80.23727
120,Broadview Heights,41.3139426,-81.6851271
121,Tacoma,47.2455013,-122.438329
122,Cincinnati,39.1014537,-84.5124602
123,Surprise,33.629247,-112.3681428
124,Shoreline,47.7564667,-122.3437497
125,Yonkers,40.9312099,-73.8987469
126,Pasadena,34.1476452,-118.1444779
127,Kingwood,39.4717557,-79.6833884
128,Sachse,32.9762327,-96.5952703
129,Helotes,29.5635688,-98.6884208
130,South Pasadena,34.1133062,-118.1478291
131,Oakland,37.8044557,-122.271356
132,Buffalo,42.8867166,-78.8783922
133,Bryan,30.6743643,-96.3699632
134,Peoria,40.6938609,-89.5891008
135,San Marino,43.9458623,12.458306
136,Sterling Heights,42.5803122,-83.0302033
137,Binghamton,42.098698,-75.9125187
138,Olmsted Falls,41.375049,-81.9081937
139,Irving,32.8295183,-96.9442177
140,West Hollywood,34.0923014,-118.3692894
141,Harker Heights,31.0746347,-97.6590473
142,Pensacola,30.421309,-87.2169149
143,Palmetto Bay,25.6217715,-80.3247748
144,Little Neck,40.7745338,-73.7412564
145,Kirkland,47.6765382,-122.2070775
146,Mercer Island,47.5602073,-122.22014226861951
147,Goodyear,33.4073522,-112.3934809
148,Riverside,33.9533546,-117.3961623
149,Litchfield Park,33.4933796,-112.358124
150,Bethesda,38.98127255,-77.12335871396549
151,Watersound,30.28815,-86.0452972
152,Round Rock,30.5085915,-97.6788056
153,Denver,39.7392364,-104.984862
154,MADEIRA BEACH,27.7980814,-82.7973247
155,Swanton,44.9181593,-73.1242364
156,Navasota,30.3874135,-96.0875066
157,LONGMONT,40.1672117,-105.1019287
158,Winston Salem,36.0998131,-80.2440518
159,Escondido,33.1216751,-117.0814849
160,Miramar,25.9873137,-80.2322706
161,Asheville,35.6009498,-82.5540161
162,Richmond,37.5385087,-77.43428
163,Pearland,29.5639758,-95.2864299
164,Clarksville,36.5277607,-87.3588703
165,Hixson,35.1414606,-85.1746774
166,Brooksville,28.5552719,-82.3878709
167,Monterey Park,34.051522,-118.129807
168,Moreno Valley,33.937517,-117.2305944
169,Lacey,47.0263876,-122.8072257
170,Forest Hills,38.2153476,-85.5857931
171,Hastings,50.8553888,0.5824703
172,Long Island City,40.7415095,-73.9569751
173,Murrieta,33.560832,-117.2106564
174,Kirby,29.4613454,-98.3857901
175,Olympia,47.0451022,-122.8950075
176,Pinecrest,25.6670476,-80.3081074
177,Anaheim,33.8347516,-117.911732
178,Waddell,33.6114269,-112.4271084
179,Bothell,47.7623204,-122.2054035
180,Sarasota,27.3365805,-82.5308545
181,Ringgold,40.7399875,-94.2547473
182,Raleigh,35.7803977,-78.6390989
183,Long Beach,33.7690164,-118.191604
184,Vancouver,49.2608724,-123.113952
185,Wilmington,39.7459468,-75.546589
186,Wesley Chapel,28.1866014,-82.36612096903323
187,Springfield,39.7990175,-89.6439575
188,South Ozone Park,40.6701035,-73.8190231
189,Aurora,41.7571701,-88.3147539
190,Sun Valley,33.670169,-95.42850117122116
191,La Jolla,32.8401623,-117.2740777
192,Phoenix,33.4484367,-112.074141
193,Lake Balboa,34.1938237,-118.5010456
194,Santa Clarita,34.3916641,-118.542586
195,Knoxville,35.9603948,-83.9210261
196,Dania Beach,26.0524224,-80.143929
197,Ashville,33.8369216,-86.2549799
198,Antioch,36.0600602,-86.6722192
199,Pompano Beach,26.2378597,-80.1247667
200,League City,29.5074538,-95.0949303
201,Converse,29.5180081,-98.3161241
202,Tamarac,26.2128609,-80.2497707
203,Irvine,33.6856969,-117.8259819
204,TAMPA,27.9477595,-82.458444
205,AURORA,41.7571701,-88.3147539
206,Tujunga,34.252225,-118.2884105
207,Reddick,29.3666393,-82.1973184
208,Chatsworth,42.9156667,-96.5159408
209,Corpus Christi,27.7635302,-97.4033191
210,Yakima,46.601557,-120.510842
211,Chino,34.0133561,-117.690075
212,Huntersville,35.4108278,-80.8429304
213,Garland,32.912624,-96.6388833
214,Shaker Heights,41.4739419,-81.5370671
215,Fayetteville,36.0625843,-94.1574328
216,Babcock Ranch,26.7847358,-81.7392199
217,Salt Lake City,40.7596198,-111.886797
218,Tigard,45.4307473,-122.771933
219,Longview,32.5007031,-94.74049
220,Reunion,-21.130737949999997,55.536480112992315
221,Gastonia,35.2622654,-81.1838186
222,San Francisco,37.7790262,-122.419906
223,Boulder,40.0149856,-105.270545
224,Buckeye,33.3703197,-112.583776
225,Soddy Daisy,35.2359025,-85.1907904
226,Bellevue,47.6144219,-122.192337
227,Vacaville,38.3565773,-121.9877444
228,Mooresville,35.5848596,-80.8100724
229,Macon,32.8406946,-83.6324022
230,South Lyon,42.451377,-83.659179
231,University Place,47.2368034,-122.552067
232,Cherryville,35.3787442,-81.3789739
233,Santa Ana,33.7494951,-117.8732213
234,West Covina,34.0686208,-117.9389526
235,Spring Hill,41.4117626,-93.6479872
236,Miami Shores,25.8631515,-80.1928253
237,Taylorsville,40.6676347,-111.9388027
238,Bellingham,48.7544012,-122.478836
239,St Johns,29.9032284,-81.4145468
240,Ventura,34.4458248,-119.0779359
241,Laredo,27.5030915,-99.5075644
242,Newport,41.4899827,-71.3137707
243,Matthews,35.1159532,-80.7224386
244,Garfield Heights,41.4169974,-81.6059581
245,Capitol Heights,38.8849913,-76.9134765
246,Mount Holly,39.9928898,-74.7876624
247,Seven Hills,41.3953304,-81.6762392
248,Edinburg,55.9533456,-3.1883749
249,Winnetka,42.1080703,-87.7365286
250,Hialeah Gardens,25.8650961,-80.3244958
251,Midland,31.9973662,-102.077948
252,Hollywood Park,29.6005047,-98.48724
253,Roanoke,37.270973,-79.9414313
254,Concord,43.207178,-71.537476
255,Allentown,40.6022059,-75.4712794
256,Ocklawaha,29.0427592,-81.9292505
257,Lakeland,28.0394654,-81.9498042
258,Ferndale,40.576241,-124.263944
259,Madeira Beach,27.7980814,-82.7973247
260,Lake Worth,32.8048507,-97.44502
261,Clinton,38.5896187,-89.420064
262,Gainesville,29.6519684,-82.3249846
263,Cutler Bay,25.5783,-80.3377
264,Strongsville,41.3144733,-81.83511
265,Silver Springs,42.6606177,-78.0855638
266,Roseville,38.7521235,-121.2880059
267,East Boston,42.3750973,-71.0392173
268,Cottonwood Heights,40.613474,-111.8256464
269,Arleta,42.8476753,-1.5868348
270,Weeki Wachee,28.5156479,-82.5735662
271,South Euclid,41.5231076,-81.5184553
272,Arlington,32.7355816,-97.1071186
273,LAKEWOOD,39.7085736,-105.0846694
274,Franklin,33.2002659,-95.2231752
275,Joelton,36.3131076,-86.8652772
276,Commerce City,39.8083196,-104.9338675
277,Lackawanna,41.4406084,-75.6260271
278,Rotonda West,26.879438999999998,-82.28068480902428
279,KISSIMMEE,28.2918995,-81.4075838
280,Sunrise,26.1666888,-80.2787573
281,Punta Gorda,26.9297836,-82.0453664
282,Bonita Springs,26.339806,-81.7786972
283,Horizon City,31.6926121,-106.207479
284,Syracuse,43.0481221,-76.1474244
285,BRIGHTON,50.8214626,-0.1400561
286,Chula Vista,32.6400541,-117.0841955
287,DENVER,39.7392364,-104.984862
288,Anthony,37.1533554,-98.0311728
289,El Cajon,32.7947731,-116.962526
290,Oak Park,41.8878145,-87.7887615
291,Enosburg,44.902157,-72.8084757
292,PLACIDA,26.8322884,-82.2648163
293,Essex,51.77046785,0.46466977412300386
294,Miami Gardens,25.9420377,-80.2456045
295,Everett,47.9793437,-122.2127011
296,Little Falls,45.9763545,-94.3625024
297,Thornton,39.8695516,-104.985181
298,Renton,47.4799078,-122.2034496
299,Aventura,25.9564812,-80.1392121
300,Victorville,34.5361067,-117.2911565
301,Albion,54.31536155,-1.9180234948012402
302,Auburn,32.6098566,-85.4807825
303,Coral Springs,26.271192,-80.2706044
304,Englewood,39.6482059,-104.9879641
305,Happy Valley,49.1344098,-105.013041
306,Richardson,32.9481789,-96.7297206
307,Cleveland Heights,41.5200518,-81.556235
308,Southwest Ranches,26.0587001,-80.3372733
309,Fisher Island,25.7598373,-80.14003652640545
310,Hazard,37.2489635,-83.1933893
311,St Pete Beach,27.7253065,-82.741212
312,Canton,32.555664,-95.8640507
313,North Richland Hills,32.8342952,-97.2289029
314,Saint Louis,38.6280278,-90.1910154
315,University Park,41.4400344,-87.683377
316,Los Fresnos,26.0714502,-97.4770792
317,Vista,33.2000368,-117.2425355
318,Oakland Park,26.1723065,-80.1319893
319,Suitland,38.850133799999995,-76.9256744274507
320,Chickamauga,34.8711497,-85.2902472
321,Norwalk,41.1175966,-73.4078968
322,Denton,33.1838787,-97.1413417
323,Fullerton,33.8708215,-117.9294165
324,McAllen,26.204114,-98.2300605
325,Rialto,34.1064001,-117.3703235
326,Belleair,27.9358543,-82.8062139
327,Brentwood,37.9317766,-121.696026
328,Surfside,25.8784285,-80.1256007
329,Cape coral,26.6059432,-81.9806771
330,PUNTA GORDA,26.9297836,-82.0453664
331,NORTH FORT MYERS,26.7107375,-81.81300645982603
332,Doral,25.8195424,-80.3553302
333,Saluda,34.0015232,-81.7720522
334,Weddington,35.0223708,-80.7609035
335,Haslet,32.9616819,-97.34048541765975
336,Fairfield,39.7886111,-82.6418883
337,Thornville,39.896454,-82.4201539
338,Downey,33.9404441,-118.1292846
339,Bay Harbor Islands,25.8875948,-80.1311564
340,Union Gap,46.5573492,-120.475063
341,North Bay Village,25.8462075,-80.1539351
342,Van Nuys,34.1866193,-118.4486675
343,Hendersonville,35.3252363,-82.4621142896057
344,Sunnyvale,37.3688301,-122.036349
345,North Miami,25.8900949,-80.1867138
346,Garden Grove,33.7746292,-117.9463717
347,St Petersburg,27.7703796,-82.6695085
348,ARCADIA,34.1362075,-118.0401497
349,Milwaukee,43.0349931,-87.922497
350,Colorado Springs,38.8339578,-104.825348
351,Hermitage,59.9412076,30.315486515853937
352,BROOMFIELD,39.9403995,-105.05208
353,Deltona,28.9005446,-81.2636738
354,Chevy Chase,38.9813699,-77.0849245
355,Bratenahl,41.5533732,-81.6043844
356,Rocky River,41.4756031,-81.8393034
357,Murfreesboro,35.8460396,-86.3921096
358,Jacksonville Beach,30.2946859,-81.3931396
359,Edgecliff Village,32.6576335,-97.3427945
360,Ooltewah,35.072036,-85.08885976005197
361,Leesburg,28.810823,-81.8778582
362,Oceanside,33.1958696,-117.3794834
363,Lancaster,40.03813,-76.3056686
364,Carrollton,32.9537349,-96.8902816
365,CELEBRATION,39.618935300000004,-105.0620428315876
366,Jurupa Valley,33.9798472,-117.4515754
367,Terrell Hills,29.4772556,-98.4464879
368,Woodhaven,42.1370519,-83.2451066
369,Youngstown,41.1035786,-80.6520161
370,Lubbock,33.5634402,-101.8792389
371,Crystal Lake,42.2411344,-88.3161965
372,West Park,25.984536,-80.1989362
373,Huntley,42.1722503,-88.42692
374,Mayfield Heights,41.5192189,-81.457896
375,Marina Del Rey,33.9776848,-118.448647
376,Morriston,51.6700114,-3.929763
377,Brownsville,25.9140277,-97.4890879
378,Ashland City,36.2742207,-87.0641699
379,College Park,38.980666,-76.9369189
380,Puyallup,47.1849009,-122.29214
381,Toledo,39.8560679,-4.0239568
382,Tarzana,34.1689295,-118.536567
383,Wilton Manors,26.1603626,-80.138934
384,Sunny Isles Beach,25.9426915,-80.1218486
385,Redding,40.5863563,-122.391675
386,Bremerton,47.5653663,-122.6246836
387,High Pt,35.9556924,-80.0053176
388,Panama City,30.1600827,-85.6545729
389,Brecksville,41.3197763,-81.6267904
390,Vallejo,38.1040864,-122.2566367
391,Bakersfield,35.3738712,-119.0194639
392,Whitwell,53.284984,-1.2101928
393,Bay Village,42.3492219,-71.0678965
394,Lynnwood,47.8278656,-122.3053932
395,Brandon,46.35270835,4.577608667704116
396,Loudonville,40.6355985,-82.2334461
397,Sun City West,33.6657535,-112.35505216920794
398,Albany,41.000028,19.9999619
399,ENGLEWOOD,39.6482059,-104.9879641
400,Huffman,33.5992702,-86.6930442
401,Youngtown,33.5937302,-112.3033265
402,Dunwoody,33.9463786,-84.3342686
403,Lyndhurst,40.8120247,-74.1242816
404,Marysville,48.0517429,-122.1768209
405,Sandy Springs,33.9242688,-84.3785379
406,Iowa Falls,42.5207924,-93.2647595
407,Olmos Park,29.4788422,-98.4875173
408,Madison,43.074761,-89.3837613
409,Pegram,36.100615,-87.0511151
410,La Vergne,45.9611662,-0.5630966
411,Venice,45.4371908,12.3345898
412,East Pt,33.6795531,-84.4393724
413,GULFPORT,30.3674198,-89.0928155
414,Kent,51.20707485,0.7210361813401444
415,Nassau Bay,29.5446753,-95.0910413
416,Hampton,37.0300969,-76.3452057
417,Savannah,32.0790074,-81.0921335
418,Boca Grande,26.7489586,-82.262039
419,Fox Island,47.248250600000006,-122.62368015613899
420,Golden Beach,25.9650919,-80.1222671
421,Celebration,39.618935300000004,-105.0620428315876
422,Bellaire,29.7057858,-95.4588299
423,Torrance,33.8358492,-118.3406288
424,Greenville,34.851354,-82.3984882
425,Fairfield Twp,41.76597615,-84.05900964165377
426,Fontana,34.0922335,-117.435048
427,Suquamish,47.7301145,-122.552989
428,Lake in the Hills,42.1816908,-88.3303618
429,Burbank,34.1812089,-118.307201
430,Anderson,31.7819242,-95.6258199
431,Middleburg Heights,41.3614401,-81.812912
432,Olmsted Township,41.3767081,-81.94564929469483
433,Miami Lakes,25.9087056,-80.3086619
434,Harrison,32.5233959,-94.3982158
435,Beaumont,30.0860459,-94.1018461
436,Norridgewock,44.713074,-69.790649
437,Rockford,42.2713945,-89.093966
438,Pataskala,39.9955726,-82.6742373
439,Evansville,37.9747645,-87.5558483
440,Conroe,30.3118769,-95.4560512
441,Osterville,41.6293398,-70.3866806
442,Cary,35.7882893,-78.7812081
443,Port Arthur,29.8988618,-93.9288723
444,Lake In The Hills,42.1816908,-88.3303618
445,Highland Park,32.831563,-96.80077329849314
446,Barnstable,41.6718684,-70.3499234
447,Lansing,42.7337712,-84.5553805
448,South Miami,25.7076017,-80.2933846
449,Lithopolis,41.3123363,69.2787079
450,Chimney Rock,35.4327295,-82.2503096
451,Henderson,32.182598,-95.7893178
452,Independence,39.0924792,-94.4137923
453,Winter Haven,28.0222435,-81.7328568
454,Key Biscayne,25.6968351,-80.1635261
455,Suisun City,38.2382474,-122.040244
456,Treasure Island,37.8233541,-122.37015310228705
457,Dunnellon,29.0491426,-82.4609331
458,Golden,39.7546349,-105.22058
459,Woodland Hills,34.1684364,-118.6058382
460,Plano,33.0136764,-96.6925096
461,Johnson City,36.3134398,-82.3534728
462,Parma Heights,41.3914132,-81.7598257
463,Abilene,32.44645,-99.7475905
464,East Cleveland,41.5331066,-81.5790137
465,Cheektowaga,42.9033917,-78.7547536
466,Westminster,51.5004439,-0.1265398
467,Canal Winchester,39.842920500000005,-82.81594617222837
468,Parma,44.8013678,10.3280833
469,Richmond Hts,41.552829,-81.510121
470,Corinth,34.9343599,-88.5223353
471,Crowley,38.3394806,-103.8263042
472,Boyds,39.1840886,-77.3122325
473,Hickory,37.959055,-93.3334746
474,Marshall,41.0324537,-89.2998456
475,Harlingen,26.1907543,-97.6960599
476,Fairview Park,41.4461727,-81.8526519
477,Beachwood,41.464498,-81.508732
478,Tukwila,47.4627356,-122.2559156
479,Queens Village,40.7267692,-73.7415208
480,Hamtramck,42.3928151,-83.0496438
481,Unincorporated,41.8049746,-87.76685134844924
482,Grand Rapids,42.9632405,-85.6678639
483,Grosse Pointe Farms,42.4092038,-82.8918587
484,Statesville,35.7826363,-80.8872959
485,Southport,53.6475988,-3.0041751
486,Abingdon,51.6714842,-1.2779715
487,Greensboro,36.0726355,-79.7919754
488,Corryton,36.1536937,-83.7824062
489,Normandy Park,47.4351528,-122.339601
490,North Las Vegas,36.2005843,-115.121584
491,Burlington,44.4761601,-73.212906
492,Alamo Heights,29.4832264,-98.468455
493,East Elmhurst,40.7612123,-73.8651358
494,Garfield Hts,41.4169974,-81.6059581
495,Summerfield,38.5972705,-89.751762
496,Richmond Heights,41.552829,-81.510121
497,Pembroke,45.8209741,-77.1115433
498,Miami Springs,25.8223198,-80.289495
499,Elgin,42.03726,-88.2810994
500,Busti,42.038113,-79.283383
501,Cordova,37.8845813,-4.7760138
502,La Canada Flintridge,34.1998302,-118.2005236
503,North Royalton,41.3136644,-81.7245739
504,Harbor City,33.7911012,-118.3012604
505,Lookout Mountain,34.9775758,-85.3577363
506,Fountain Valley,33.7038145,-117.9627349
507,Redmond,47.6694141,-122.1238767
508,CLEARWATER,27.9658533,-82.8001026
509,Floral Park,40.7246999,-73.7048024
510,Mocksville,35.8940236,-80.5617846
511,Saginaw,43.4200387,-83.9490365
512,Warner Robins,32.6200973,-83.606568
513,Brookhaven,31.5790667,-90.4407122
514,Columbiana,40.7787016,-80.7648602
515,Hyattsville,38.9529442,-76.9408647
516,Solon,41.8072344,-91.4940604
517,LITTLETON,39.613321,-105.016649
518,Coronado,32.6915199,-117.1766947
519,Ridgewood,40.9796683,-74.1194403
520,Reseda,34.2006552,-118.536528
521,Del Mar,32.9594891,-117.2653146
522,Silver Spring,38.9997621,-77.02403709829767
523,Magnolia,30.2094574,-95.7508098
524,Atlantic Beach,40.5886547,-73.7288791
525,Belleview,29.0552507,-82.0623105
526,Old Hickory,36.2597132,-86.6480884
527,Crosby,33.5778818,-101.2855737
528,Beverly Hills,34.0696501,-118.3963062
529,District Heights,38.8622077,-76.8815207
530,Astoria,46.1882007,-123.8319802
531,Mountlake Terrace,47.7909667,-122.3066395
532,Kenneth City,27.8155812,-82.7201004
533,Bedias,30.7757486,-95.949397
534,Wyoming,43.1700264,-107.568534
535,Bal Harbour,43.195122749999996,-79.51479996220405
536,Millersport,39.9000639,-82.534048
537,Hill Country Village,29.5824497,-98.4908512
538,Federal Way,47.313494,-122.33931
539,Monticello,42.617236,8.9546269
540,Alhambra,37.176059949999996,-3.5881102773279347
541,Mcallen,26.204114,-98.2300605
542,Tierra Verde,27.6919746,-82.7234337
543,Grand Ledge,42.7524401,-84.7463572
544,Indio,33.7192808,-116.2188054
545,York,53.9590555,-1.0815361
546,Euclid,41.5931049,-81.5267873
547,Opa Locka,25.9023168,-80.2503271
548,Germantown,38.5538072,-89.5382505
549,Live Oak,28.2678746,-98.101923
550,Montebello,34.0159398,-118.111975
551,Wheat Ridge,39.766098,-105.0772063
552,Bull Valley,42.3205773,-88.3550887
553,Santa Rosa,38.4404925,-122.7141049
554,Warren,41.8119602,-79.2654452
555,Pickerington,39.8842304,-82.7535049
556,Downtown Pgh,40.4404399,-80.0058066
557,Vienna,48.2083537,16.3725042
558,Northridge,34.2345615,-118.5369316
559,Winter Park,28.5977707,-81.3510264
560,Santa Maria,-29.6860512,-53.8069214
561,CENTENNIAL,39.579155,-104.8769227
562,Santa Monica,34.0194704,-118.491227
563,Davis,40.7474784,-92.3965311
564,Odessa,46.4843023,30.7322878
565,Cooper City,26.057783,-80.2695109
566,Watauga,36.2228105,-81.6863808
567,Lake Odessa,42.7847564,-85.1383367
568,Allen,40.8077797,-84.0572225
569,Humble,29.9988312,-95.2621553
570,Thousand Oaks,34.1705609,-118.8375937
571,Fort Collins,40.5508527,-105.0668085
572,Sherman Oaks,34.1508718,-118.4489865
573,Provo,40.2337289,-111.6587085
574,Saint pete beach,27.7253065,-82.741212
575,Lorain,41.4673238,-82.1781904
576,Mayville,47.4988198,-97.3260335
577,Kansas City,39.100105,-94.5781416
578,Kennewick,46.2087066,-119.119919
579,Pueblo West,38.3558615,-104.7112109849374
580,Pacoima,34.2625025,-118.427027
581,Bainbridge Island,47.647696749999994,-122.5460926142444
582,TIERRA VERDE,27.6919746,-82.7234337
583,Falconer,42.11867,-79.19838
584,Grand Junction,39.063956,-108.5507317
585,Shelburne,43.7656395,-65.3174974
586,Bunker Hill Village,29.7674508,-95.5299427
587,KENNETH CITY,27.8155812,-82.7201004
588,Piney Pt Village,29.759951,-95.5171646
589,Naperville,41.7728699,-88.1479278
590,Middleville,43.138823,-74.9683
591,Stockton,37.9577016,-121.2907796
592,Robinson,31.4676687,-97.1147226
593,Ann Arbor,42.2681569,-83.7312291
594,Montgomery,32.3669656,-86.3006485
595,BOCA GRANDE,26.7489586,-82.262039
596,Redington Beach,27.8086364,-82.811214
597,Modesto,37.6390972,-120.9968782
598,Middle Village,40.718222749999995,-73.87867894730417
599,Jackson Heights,40.7556561,-73.8857755
600,Socorro,34.0572858,-106.8930799
601,Berkshire,51.453488899999996,-1.0318729593399247
602,Silver Lake,44.9032959,-94.1955334
603,Antelope,42.1864809,-98.0716943
604,Des Moines,41.5910323,-93.6046655
605,Wachee,28.5156479,-82.5735662
606,San Bernardino,34.8253019,-116.0833144
607,Celina,40.5489358,-84.5702338
608,Katy,29.7857853,-95.8243956
609,Northglenn,39.9100858,-104.987552
610,Hillsboro,45.5228939,-122.989827
611,Goodlettsville,36.334911500000004,-86.70533913302022
612,REUNION,-21.130737949999997,55.536480112992315
613,Fremont,37.5482697,-121.988571
614,Camby,39.661472,-86.3120233
615,Gray,47.4455642,5.5919867
616,Littcarr,37.2409321,-82.9487727
617,ST PETE BEACH,27.7253065,-82.741212
618,Laveen,33.3618814,-112.1533861
619,Redford,55.9060194,-3.2438518
620,El Monte,34.0751571,-118.036849
621,North Port,27.044224,-82.2359254
622,Whitefish Bay,43.1133445,-87.9000856
623,Beulah,47.26334,-101.777946
624,Farmers Branch,32.9265668,-96.8960916
625,North Fort Myers,26.7107375,-81.81300645982603
626,Alexandria,38.8051095,-77.0470229
627,River Hills,43.1678887,-87.9356638
628,Windcrest,29.515508,-98.3802925
629,Clovis,36.8252277,-119.7029194
630,Mission Hills,39.0177834,-94.6169014
631,Issaquah,47.5348778,-122.0432974
632,Poughkeepsie,41.7065539,-73.9283672
633,American Canyon,38.223457,-122.22704307123536
634,Rock Spring,33.9367657,-85.9105247
635,Sheldon,43.1801338,-95.8525185
636,Gowanda,42.463117,-78.935868
637,Granada Hills,34.2661558,-118.5174342
638,South Pittsburg,35.0122635,-85.7058445
639,NORTHGLENN,39.9100858,-104.987552
640,Costa Mesa,33.6633386,-117.903317
641,Beltsville,39.039773499999995,-76.92718505662606
642,Glenarden,38.9292782,-76.8616387
643,Laurelton,40.6667703,-73.7515212
644,South Bend,41.6833813,-86.2500066
645,Pleasantville,41.3867741,-93.2694768
646,Ionia,42.9469688,-85.0713945
647,Pacific Palisades,34.0480643,-118.5264706
648,Rockaway Park,40.5805104,-73.8361535
649,High Point,35.9556924,-80.0053176
650,WHEATRIDGE,41.149953350000004,-85.12945374617999
651,Reynoldsburg,39.9547861,-82.8121191
652,Rochester,43.157285,-77.615214
653,Studio City,34.1483989,-118.3961877
654,Whites Creek,-33.8797558,151.1676737
655,THORNTON,39.8695516,-104.985181
656,Oklawaha,26.9333216,-80.11538857672339
657,Texas City,29.396013,-94.9175485
658,Milwaukie,45.4440051,-122.6412523
659,Westfield,42.1205411,-72.7489158
660,Joliet,41.5263603,-88.0840212
661,El Mirage,33.6130338,-112.324486
662,Carroll,42.0647352,-89.9556785
663,Lauderdale By The Sea,26.192028,-80.0964326
664,Garner,43.102147,-93.6020069
665,St. Petersburg,27.7703796,-82.6695085
666,Edmonds,47.8105738,-122.3774952
667,Covington,39.0836224,-84.508371
668,Avondale,33.4355977,-112.349602
669,West Valley,42.402841,-78.6100253
670,Commerce,34.002581,-118.156586
671,Estero,26.4381474,-81.8067537
672,LAKE SUZY,27.0381125,-82.0370322
673,Far Rockaway,40.6053825,-73.7551326
674,Pepper Pike,41.478387,-81.46373
675,Ozone Park,40.67677,-73.8437461
676,Pinellas Park,27.8428025,-82.6995444
677,Akron,41.083064,-81.518485
678,Grosse Pointe Woods,42.4435616,-82.9069508
679,Port Orchard,47.5315625,-122.6384056
680,Adams,39.9787786,-91.2110065
681,SOUTH PASADENA,34.1133062,-118.1478291
682,Gulfport,30.3674198,-89.0928155
683,Frisco,33.1505998,-96.8238183
684,Woodstock,42.0410578,-74.1182492
685,Potomac,39.0180508,-77.1956331355745
686,Arcadia,34.1362075,-118.0401497
687,Saint Albans City,40.6984364,-73.7606881
688,Augusta,33.4709714,-81.9748429
689,MORRISON,45.9926837,-94.2554658
690,Pittsburgh,40.4416941,-79.9900861
691,Hunters Creek Village,29.7705062,-95.4954973
692,Bee Cave,30.3085373,-97.94501
693,Simi Valley,34.2677404,-118.7538071
694,Rego Park,40.72286495,-73.86210252803048
695,Fairfax,38.8462236,-77.3063733
696,South Burlington,44.4671635,-73.1715669
697,Aledo,32.69900905,-97.60396629774493
698,Dewittville,42.2392247,-79.4453246
699,Placida,26.8322884,-82.2648163
700,Santa Cruz,28.469648,-16.2540884
701,Sweetwater,32.4709519,-100.405938
702,Erie,42.1294712,-80.0852695
703,Ridgefield,41.2814842,-73.4981792
704,Collins,41.9028032,-93.3063381
705,TEMPLE TERRACE,28.0352964,-82.3892596
706,Rancho Santa Fe,33.024194949999995,-117.19815158464624
707,Salinas,36.6744117,-121.655037
708,Canyon Country,34.4233293,-118.4720281
709,Harrisburg,40.2663107,-76.8861122
710,Woodinville,47.7545827,-122.1588902
711,Vansant,37.232178000000005,-82.10526931742173
712,Hollywood Pa,34.72425,-85.9724787
713,West University Place,29.7180075,-95.4338292
714,Salem,44.9391565,-123.033121
715,Bonney Lake,47.1870191,-122.1702293
716,Campbell,38.9339799,-84.3715286
717,Hayward,37.6688205,-122.080796
718,View Park,35.9374327,-83.87980836318381
719,Dayton,39.7589478,-84.1916069
720,Stowe,44.4643768,-72.6856197
721,Fredonia,5.8761735999999996,-75.6915506750999
722,New Hyde Park,40.7352157,-73.6883239
723,REDINGTON SHORES,27.8261357,-82.8289923
724,Forest Hill,32.6720778,-97.2691812
725,Baltimore,39.2908816,-76.610759
726,Panton,44.1487741,-73.3409047
727,Nolensville,35.9522852,-86.6694413
728,Dunlap,41.8541894,-95.6006149
729,Grosse Pointe Park,42.3816896,-82.9313655
730,St Augustine,29.8946952,-81.3145395
731,Martinez,38.0138934,-122.1338674
732,Green Township,44.9877502,-83.79899431820323
733,Pflugerville,30.4393696,-97.6200043
734,Holladay,40.6710765,-111.8250278
735,Warrensville Heights,41.43535,-81.514824
736,Tulalip,48.071385500000005,-122.26486740245815
737,SeaTac,47.4449086,-122.283084
738,Missouri City,29.6185669,-95.5377215
739,Clear Lake,43.1370751,-93.3813637
740,Hephzibah,33.3140311,-82.0967857
741,Tolleson,33.4500497,-112.259309
742,Littleton,39.613321,-105.016649
743,Callaway,38.8491265,-91.9257607
744,Orange Park,30.1654707,-81.7016346
745,Oak Ridge,36.0103562,-84.2696449
746,Coconut Grove,25.7398164,-80.2388468
747,Gig Harbor,47.3259697,-122.5878659
748,Carroll Gardens,40.6784201,-73.9948021
749,Woodside,37.4299388,-122.253855
750,King City,36.2127439,-121.126028
751,Culver City,34.0211224,-118.396466
752,Mission Viejo,33.5965685,-117.659405
753,Apex,35.7325352,-78.8505516
754,WESTMINSTER,51.5004439,-0.1265398
755,North Hero,44.8171051,-73.2900913
756,Etna,37.7510251,14.9940321
757,Alburgh,52.441589050000005,1.3230501508591357
758,Gilroy,37.0065078,-121.5631723
759,Landover,38.92531295,-76.88154330442846
760,Morrison,45.9926837,-94.2554658
761,Piney Point Village,29.759951,-95.5171646
762,Tumwater,47.0080655,-122.910368
763,Arverne,40.5934173,-73.7895462
764,Orange,33.7500378,-117.8704931
765,Inlet Beach,30.2768681,-86.0079936
766,Kingston Springs,36.1020038,-87.1150054
767,Stedman,35.0134999,-78.6939063
768,Rosemary Beach,41.9819869,-86.5636331
769,Thomasville,35.8831786,-80.081817
770,Palo Alto,37.4443293,-122.1598465
771,West Miami,25.7560176,-80.2956847
772,Heath,32.8365147,-96.474987
773,Jericho,31.855991,35.4598851
774,Kenmore,47.7596715,-122.2496367
775,Champaign,40.1164841,-88.2430932
776,Medley,25.8406526,-80.3264404
777,Archer,33.5816594,-98.7044869
778,Dell City,31.9389406,-105.2010855
779,Visalia,36.3302284,-119.292058
780,Jamestown,37.2104434,-76.7738928
781,Saint Lucie,27.3900897,-80.457904
782,Whitestone,50.73837845,-3.6009702380632556
783,Glen Oaks,34.4430807,-112.5485052
784,Von Ormy,29.286868,-98.6482144
785,Mount Juliet,36.200055,-86.5186054
786,Annandale,45.2627428,-94.1244271
787,Benbrook,32.673188,-97.4605759
788,Turlock,37.4946568,-120.8465941
789,La Crescenta,34.230429,-118.2350733
790,Cohasset,47.263556,-93.620215
791,Westworth Village,32.7597192,-97.4214547
792,McLean,40.4631789,-88.8196613
793,Royal Palm Beach,26.7050822,-80.2279519
794,Queens,40.7135078,-73.8283132
795,Elkhart,41.6012796,-85.8590603
796,Citra,29.4119166,-82.1098156
797,Falls Church,38.882334,-77.1710914
798,Canoga Park,34.2011078,-118.5978087
799,New York City,40.7127281,-74.0060152
800,Winterville,33.9670589,-83.2782101
801,Brook Park,41.3983838,-81.8045788
802,Graham,35.359542,-83.8337785
803,,46.3144754,11.0480288
804,Maple Heights,41.4153313,-81.565956
805,BUFFALO,42.8867166,-78.8783922
806,Hollis,35.6674547,-119.1912178
807,Verdi,39.5182427,-119.988811
808,Belle Isle,28.462158,-81.3601068
809,Fox Point,44.611896,-64.0588731
810,Sun City,33.6169035,-112.28011795781
811,Doraville,33.8981579,-84.2832564
812,Hahira,30.9913064,-83.3726575
813,Shenandoah,38.856559,-78.5890893
814,San Pedro,9.39663005,-75.03354633922669
815,Royal palm beach,26.7050822,-80.2279519
816,Seacrest,53.261700700000006,-9.116288144602152
817,Longmont,40.1672117,-105.1019287
818,Georgetown,6.8137426,-58.1624465
819,Chico,39.7284945,-121.8374777
820,Ecorse,42.2444833,-83.145757
821,Spanaway,47.0979462,-122.4243422
822,Sugar Grove,41.7616204,-88.4439261
823,Cedar Hill,32.5888072,-96.9553675
824,Dupont,43.6747046,-79.406983
825,Clyde Hill,47.631569,-122.2181054
826,College Point,40.7876014,-73.8459682
827,Herkimer,43.4911326,-74.9481252
828,Bryans Road,38.62537235,-77.08208250390275
829,Gresham,45.4997475,-122.4309766
830,Goodell,42.9238733,-93.6126125
831,Corona,33.8752945,-117.5664449
832,Centennial,39.579155,-104.8769227
833,Lowell,42.6414437,-71.3085329
834,Santee,32.8383828,-116.9739167
835,Merced,37.1641544,-120.7678602
836,GOLDEN,39.7546349,-105.22058
837,Grosse Pointe,42.3861485,-82.9118591
838,Cherry Creek,42.294504,-79.099764
839,El Centro,32.792,-115.563051
840,Rossville,39.13611,-95.951656
841,New Bedford,41.6362152,-70.934205
842,Round Lake Beach,42.3716881,-88.0900806
843,Elmhurst,41.8994745,-87.9403418
844,White Settlement,32.7595737,-97.4583538
845,East Fultonham,39.8500679,-82.1220868
846,Snohomish,48.0074736,-121.7304882
847,Friendswood,29.5293998,-95.2010447
848,Hope Mills,34.9704419,-78.9453056
849,Pueblo,38.2544472,-104.609141
850,El Portal,25.8553739,-80.193103
851,Battle Creek,42.3192548,-85.1824269
852,Point Charlotte,13.3681974,-61.1354054
853,Hutto,30.5427638,-97.5468898
854,Roosevelt Island,40.76133675,-73.95028526170718
855,Cooleemee,35.8104164,-80.5558942
856,Bushwick,40.6942696,-73.9187482
857,Richlands,37.0944752,-81.7997182
858,South Boston,42.3334312,-71.0494949
859,North Highlands,33.7909385,-84.3538145
860,Neptune Beach,30.311908,-81.3964734
861,Edgewood,42.6444914,-91.4011118
862,San Ysidro,32.5520013,-117.0430813
863,Vashon,47.420875949999996,-122.47370525466893
864,TREASURE ISLAND,37.8233541,-122.37015310228705
865,Utica,43.1009031,-75.2326641
866,Broomfield,39.9403995,-105.05208
867,University Heights,41.6551485,-91.5599003
868,Coconut Creek,26.2517482,-80.1789351
869,Lewisville,33.046233,-96.994174
870,Takoma Park,38.9778882,-77.0074765
871,Garrett,39.544087,-79.2496976
872,Jasper,30.7485258,-94.000884
873,West Seneca,42.8395833,-78.7541466
874,Dickson,36.1459327,-87.3480592
875,West Jordan,40.6061337,-111.9395211
876,Greeley,40.4233142,-104.7091322
877,Doctor Phillips,28.4477089,-81.48865365070839
878,Shavano Park,29.5849496,-98.5525194
879,South Holland,51.9966792,4.5597397
880,Mount Perry,36.2735631,-116.7244934
881,Daly City,37.6904826,-122.47267
882,Midway Park,34.7279201,-77.3393728
883,Pomona,34.0553813,-117.7517496
884,Enterprise,31.3151708,-85.8552161
885,Columbia,4.099917,-72.9088133
886,JACKSONVILLE,30.3321838,-81.655651
887,Harper Woods,42.4333367,-82.9238847
888,Brighton,50.8214626,-0.1400561
889,Stallings,35.1083615,-80.66355902160382
890,APOPKA,28.678013,-81.511398
891,Georgia,32.3293809,-83.1137366
892,New Haven,41.3082138,-72.9250518
893,Oxnard,34.1976308,-119.1803818
894,Hemet,33.7475203,-116.9719684
895,Hinesburg,44.329251,-73.111267
896,Barrington,42.1539141,-88.1361888
897,Bedford,40.0271453,-78.5237447
898,Tarkington Prairie,30.3107649,-94.9638186
899,Fairview,49.2641128,-123.1268352
900,Temple Hills,38.81050355,-76.95000596047004
901,Naples,40.8358846,14.2487679
902,Lehigh,40.6096215,-75.6048728
903,Seatac,47.4449086,-122.283084
904,Berkeley,37.8708393,-122.272863
905,Webster,32.050618,-84.5473105
906,Saltville,36.8815031,-81.7620635
907,Castlewood,44.722743,-97.030068
908,Kingston,17.9712148,-76.7928128
909,Carlsbad,33.1580933,-117.3505966
910,Arvada,39.8005505,-105.0811573
911,Rosedale,35.3777238,-119.14565861581144
912,Los angeles,34.0536909,-118.242766
913,Encino,34.1591324,-118.5016166
914,Cambridge,52.2055314,0.1186637
915,North Pt,22.2906565,114.1989737
916,Yuba City,39.1404477,-121.6169108
917,Viper,34.420943,-118.5955267
918,Biltmore Forest,35.5337246,-82.5284561
919,Dorchester,50.7132064,-2.4371229
920,Hallandale,25.9812025,-80.148379
921,Mc Allen,41.0651469,-85.0920847
922,Stow,41.1596261,-81.4406258
923,Brier,47.7845419,-122.274294
924,Barney,46.2671819,-97.0006405
925,Bunnell,29.4657731,-81.2576832
926,Greenbelt,38.9933654,-76.88333238304114
927,Bladensburg,38.9392997,-76.9337983
928,Medford,42.4184296,-71.1061639
929,Waldorf,50.4855665,7.2293555
930,Hindman,37.3359313,-82.9804414
931,Fort Wayne,41.0799898,-85.1386015
932,St. Albans City,51.7504966,-0.3276687
933,Newbury Park,51.5754985,0.0899693
934,Winters,31.9565343,-99.962313
935,Upper Marlboro,38.8139804,-76.7575894
936,Chamblee,33.892176,-84.2988296
937,River Rouge,42.2729262,-83.1352891
938,Marstons Mills,41.6562249,-70.4161387
939,Redington Shores,27.8261357,-82.8289923
940,Belvidere,42.2579991,-88.841734
941,Algona,43.0699663,-94.233019
942,Castle Hills,29.5232851,-98.5164071
943,Buena Ventura Lakes,28.3249,-81.3727
944,Los Gatos,37.226611,-121.9746797
945,Brown Deer,43.1744352,-87.972722
946,Alta Loma,34.122887,-117.5985775
947,Porter Ranch,34.2818164,-118.5612714
948,Williamsville,39.9542161,-89.5487126
949,Rye,46.8712641,5.4297754
950,Morgan Hill,37.130408,-121.6544974
951,Knightdale,35.7878975,-78.4822938
952,Christiana,39.6651122,-75.6599297
953,Playa Del Rey,33.9541453,-118.4388067
954,Fircrest,47.2317185,-122.514304
955,Rancho Cucamonga,34.1033192,-117.5751735
956,MIAMI,25.7741728,-80.19362
957,Timnath,40.5294388,-104.9820861
958,Eastover,35.099219,-78.78829551256487
959,North Redington Beach,27.8161361,-82.8206587
960,Murray,34.7851861,-84.7352262
961,Palmer,61.5995703,-149.11109
962,Trenton,40.2205944,-74.7597219
963,Biscoe,35.3600553,-79.7796559
964,Newburgh Heights,41.450052,-81.6634618
965,Bay Ridge,40.6320062,-74.0232101
966,Panorama City,34.2242902,-118.4453745
967,Valdosta,30.8327022,-83.2784851
968,Highland Hills,41.448387,-81.51901
969,Greenbrier,37.961175,-80.450934
970,Valley Village,34.1637147,-118.3965758
971,Wildwood,38.5806948,-90.6314374
972,Douglaston,40.768713,-73.7470765
973,Bartlett,41.9908485,-88.1850028
974,Ontario,50.000678,-86.000977
975,San Mateo,37.496904,-122.3330573
976,College Pt,40.7876014,-73.8459682
977,NORTH REDINGTON BEACH,27.8161361,-82.8206587
978,Anderson Island,-40.304008800000005,148.10797659054697
979,Bowie,33.4198886,-94.4479626
980,Delton,42.4997581,-85.4080641
981,Scarsdale,40.9880495,-73.7974133
982,Colchester,51.8896903,0.8994651
983,Dania,55.670249,10.3333283
984,Ft Lauderdale,26.1223084,-80.1433786
985,National Harbor,38.783342000000005,-77.01482848047912
986,Forest City,43.2626747,-93.6376741
987,Brookpark,52.04134325,-8.974887062320652
988,Santa Clara,37.2333253,-121.6846349
989,Benicia,38.049365,-122.1585777
990,Haltom City,32.7995738,-97.2691817
991,Lyons,41.811108,-87.8232695
992,Forestville,48.739437,-69.088211
993,Elk Grove,38.4087993,-121.3716178
994,Mckinney,33.1976496,-96.6154471
995,Baldwin,33.0869398,-83.2633216
996,Brush Prairie,45.732839,-122.5433169004601
997,Flintstone,39.703508,-78.57623876461042
998,Manhattan,40.7896239,-73.9598939
999,West Hills,40.8162099,-73.4323438
1000,Bemus Point,42.1593392,-79.3922893
1001,Chautauqua,42.2894671,-79.421728
1002,Briarwood,38.2781258,-85.5930164
1003,La Tuna Canyon,34.234052,-118.2720531
1004,Clemmons,36.0215258,-80.3819984
1005,Bremen,53.0758196,8.8071646
1006,Dixon,41.8425197,-89.4814291
1007,Cedar Bluff,37.0876141,-81.7590032
1008,Stanford,37.426540700000004,-122.17030545534064
1009,Jersey Village,29.888578,-95.5699185
1010,Lanham,38.965365000000006,-76.84179265424164
1011,Spring Valley Village,29.7896722,-95.5035529
1012,Ferrisburgh,44.2057119,-73.2462973
1013,Sparks,39.5404679,-119.7487235
1014,Hurst,32.8234621,-97.1705678
1015,Emeryville,37.8314089,-122.2865266
1016,Williston,48.1465457,-103.621814
1017,Addison,41.931696,-87.9889556
1018,Palms,36.1144076,-115.1953825826381
1019,Temecula,33.4946353,-117.1473661
1020,Arlington Heights,42.0811563,-87.9802164
1021,Colerain Township,39.2584995,-84.63292616794756
1022,Camas,37.4020115,-6.0331571
1023,Soddy-Daisy,35.2359025,-85.1907904
1024,Matlacha,26.6282115,-82.07010541515427
1025,Amherst,42.3731948,-72.5198761
1026,Parrish,33.7334096,-87.281325
1027,Newark,40.735657,-74.1723667
1028,Highlands Ranch,39.5497243,-104.9695655
1029,Sunnyside,47.8595825,-53.9209544
1030,West Lake Hills,30.2877039,-97.8068157
1031,Coldspring,30.592421,-95.1293818
1032,Lafayette,30.2043259,-92.0298813
1033,Biscayne Park,25.8825951,-80.1806025
1034,Cattaraugus,42.2234823,-78.6477096
1035,Castroville,29.3565001,-98.8788844
1036,Everman,32.630968,-97.2891817
1037,Medina,29.2836281,-99.1126826
1038,Howard Beach,40.6578815,-73.8362459
1039,Middleburg,38.9690189,-77.7355056
1040,Maxville,45.2885939,-74.8554938
1041,Buckeye Lake,39.933473,-82.48256385263426
1042,Stokesdale,36.2372048,-79.9793529
1043,Bainbridge Is,47.647696749999994,-122.5460926142444
1044,Sherman,36.2452294,-101.8858689
1045,Santa Barbara,34.4221319,-119.702667
1046,Pfafftown,36.1526379,-80.3622753
1047,Bristol,51.4538022,-2.5972985
1048,Other,18.443262150000002,-77.30074843023925
1049,East Los Angeles,34.0239015,-118.172015
1050,Mercer,41.3334542,-80.3014412
1051,Pinedale,42.8671325,-109.8609808
1052,Bay Lake,28.3876261,-81.57491966925264
1053,Orting,47.0978795,-122.204282
1054,Richland Hills,32.8159623,-97.2280695
1055,Toluca Lake,34.1521688,-118.357141
1056,Whitney,36.0885321,-115.037213
1057,Bronxville,40.9381544,-73.8320784
1058,Riverview,46.0612076,-64.8033246
1059,Rowan,35.6315952,-80.5171754
1060,Adelphi,38.9983345,-76.97074096386194
1061,Saint Albans Town,51.48211675,-0.605621870505491
1062,Cleburne,35.5298937,-92.0312818
1063,Milton,30.6324149,-87.0396881
1064,Waterville,44.5520105,-69.6317121
1065,Garden Ridge,29.6346708,-98.3052907
1066,Oakwood,51.6473302,-0.1312548
1067,Minnie,37.4723222,-82.7540477
1068,Cold Creek,44.2889943,-92.4348555
1069,Kemah,29.5427297,-95.0204837
1070,Menifee,37.9357602,-83.6014187
1071,Clearwater Beach,27.9774736,-82.8279313
1072,Glenford,39.8881223,-82.317094
1073,Blue Ash,39.2320073,-84.3782817
1074,Dickinson,38.8790615,-97.1893341
1075,Haines City,28.1067315,-81.6287423
1076,Kew Gardens Hills,40.7159628,-73.8328014
1077,Hebron,31.528902,35.0944873
1078,Fife,56.3333331,-3.0000001
1079,El Sereno,34.0811213,-118.1778495
1080,Belton,31.0560132,-97.464453
1081,Euless,32.8457865,-97.0667142473263
1082,Canutillo,31.9124684,-106.598098
1083,Stafford,38.0350094,-98.718816
1084,Washingtonville,41.4278716,-74.1659798
1085,Bellerose,40.7242205,-73.7164845
1086,Porter,41.4457032,-87.0724971
1087,Saint George,12.0535331,-61.751805
1088,Ft Worth,32.753177,-97.3327459
1089,Sunfield,38.0644947,-89.2400819
1090,Holland,52.2434979,5.6343227
1091,Anderson Township,39.08684035,-84.34202549902601
1092,Flint,43.0161693,-83.6900211
1093,Richmond Hill,43.8801166,-79.4392925
1094,Greenhurst,42.119502,-79.3103261
1095,Clintwood,37.1501067,-82.4559846
1096,Reading,51.456659,-0.9696512
1097,Homestead,25.4718946,-80.4759905
1098,Fort Washington,38.738019,-77.00207559994112
1099,Pt Isabel,26.0734119,-97.2085844
1100,Mount Charleston,36.257191,-115.642799
1101,City Terrace,34.0500116,-118.1828495
1102,Stoutsville,39.5511495,-91.86184503045348
1103,Rockville,39.0817985,-77.1516844
1104,Cockrell Hill,32.7362421,-96.8869481
1105,Newberry,34.3266879,-81.5830086
1106,Archdale,35.914581,-79.9719831
1107,Greenpoint,40.7237134,-73.9509714
1108,Lake Forest Park,47.7567679,-122.2809623
1109,Kernersville,36.1198589,-80.0736533
1110,Ponte Vedra,42.4318876,-8.6431592
1111,Blue Mound,32.8565166,-97.3389061
1112,Wellsville,38.7183422,-95.0816354
1113,Lebanon,33.8750629,35.843409
1114,North Randall,41.434424,-81.525492
1115,Gardena,33.8963593,-118.3053037
1116,Kensington,51.4989948,-0.1991229
1117,Eagle,39.6161124,-106.7172844
1118,Richford,53.42689,-113.507647
1119,North Hills,40.7809343,-73.6765187
1120,Menands,42.6920233,-73.7245639
1121,Mountain View,37.3893889,-122.0832101
1122,Winooski,44.4910402,-73.1861064
1123,SAINT PETERSBURG,27.7703796,-82.6695085
1124,North Tustin,33.764462,-117.7939431
1125,Steilacoom,47.1703692,-122.596287
1126,Highland Heights,39.0330902,-84.4521512
1127,Dearborn Heights,42.3369816,-83.2732627
1128,INTERCESSION CITY,28.2625124,-81.5078505
1129,Millcreek,40.6992918,-111.855583
1130,Maspeth,40.723158,-73.912637
1131,Elmendorf,29.2560731,-98.3327903
1132,St George,37.104153,-113.5841313
1133,Falcon Heights,44.9898128,-93.1762507
1134,Clinchco,37.1612189,-82.3598688
1135,Petersburg,59.938732,30.316229
1136,Quitman,31.8769847,-85.0154412
1137,Lakeside,42.6214633,-95.1744757
1138,Oxon Hill,38.784824900000004,-76.9694015528087
1139,River Oaks,32.7770737,-97.394463
1140,Altadena,34.1863161,-118.1352329
1141,Burke,35.7270403,-81.6632108
1142,Latimer,34.8759191,-95.2482652
1143,New Palestine,39.7219882,-85.8891471
1144,Alden,45.9767795,11.0908573
1145,Indian Land,35.0018151,-80.8556287
1146,The Colony,33.0890094,-96.8863922
1147,South Salt Lake,40.7074741,-111.88827
1148,Glenn Heights,32.54390135,-96.85529749543817
1149,Fort worth,32.753177,-97.3327459
1150,Saint Paul,44.9497487,-93.0931028
1151,Indian Trail,35.0768141,-80.6692352
1152,Slc,40.790066100000004,-111.97989846185591
1153,Riverdale,41.6333678,-87.6331021
1154,Mebane,36.0959715,-79.2669619
1155,Saint Albans,51.753051,-0.3379675
1156,Stanton,37.5691072,-101.7935648
1157,Hideaway Hills,39.655828,-82.46262603488856
1158,West Chester,39.9597213,-75.6059638
1159,Newcastle,54.9738474,-1.6131572
1160,Westport,41.1414855,-73.3578955
1161,Bahama,24.7736546,-78.0000547
1162,Bedford Heights,41.4143826,-81.5061146
1163,Buckley,40.5969794,-88.0380959
1164,Kalamazoo,42.291707,-85.5872286
1165,Amanda,39.649508,-82.7443367
1166,Mount Rainier,46.8521484,-121.757682
1167,Goulds,25.5634735,-80.38613792096352
1168,Fort Myers,26.640628,-81.8723084
1169,Oakland Gardens,40.753991,-73.765966
1170,Conewango Valley,42.2408935,-79.0608745
1171,Wheaton,41.8646959,-88.1101709
1172,Perrine,45.9432791,5.4297409
1173,Corning,42.1435257,-77.0543408
1174,Ogden,41.2230048,-111.9738429
1175,Spring hill,41.4117626,-93.6479872
1176,Valleyview,55.0746283,-117.2798053
1177,Orleans,47.9027336,1.9086066
1178,Boulevard,32.6636712,-116.273629
1179,Mill Creek,47.8577455,-122.2210628
1180,Dalton,46.173849,-95.915609
1181,Napa,38.2971367,-122.2855293
1182,Dunkirk,51.0347708,2.3772525
1183,Meadowview,33.5209052,-117.1331182
1184,Belmont,48.4086571,7.2386756
1185,Logan,40.1075089,-89.3768539
1186,Westover Hills,32.7448522,-97.4136301
1187,Olney,33.3711244,-98.7566946
1188,Centerville,31.2578221,-95.9785301
1189,Montrose,38.4375391,-108.2403855
1190,Sunland,34.2669466,-118.3023
1191,Forney,32.747893,-96.4719289
1192,St. Albans Town,44.787624,-73.125168
1193,Belding,43.09781,-85.228906
1194,the Hills,-33.57530935,150.97101605203903
1195,Westford,42.5792583,-71.4378411
1196,Potterville,42.629203,-84.738874
1197,Grosse Pointe Shores,42.4367034,-82.8768586
1198,New Lexington,39.7139579,-82.2084805
1199,Broad Channel,40.6064008,-73.81901879728136
1200,Richards,-33.6582477,150.8455771
1201,New Richmond,48.1651194,-65.8655584
1202,Jamaica Est,-21.53031185,-51.6268714125
1203,Randolph,38.0472916,-89.8107962
1204,San Pablo,-23.5506507,-46.6333824
1205,Anderson Twp,39.08684035,-84.34202549902601
1206,Fort Oglethorpe,34.9513885,-85.2414925
1207,Fort Mill,35.0073697,-80.9450759
1208,Johnson,32.3766071,-97.3568623
1209,Cedar Park,30.5217116,-97.827833
1210,Lisbon,38.7077507,-9.1365919
1211,Bayside Hills,-37.9551355,145.02548165
1212,South Richmond Hill,-28.7908,153.3442
1213,LUTZ,43.4367,1.7835
1214,Federal Heights,39.8591279,-105.015631
1215,Manor,30.3420882,-97.555905
1216,Galena Park,29.7335616,-95.2302123
1217,Mc Gregor,40.9379727,-79.2192697
1218,Mc Kinney,32.89782,-94.554864
1219,Laurelville,39.473397,-82.7393363
1220,Fruit Cove,30.0928745,-81.60699194552737
1221,Arkwright,42.407002,-79.236431
1222,Cedar Fort,40.3272249,-112.1068456
1223,Poulsbo,47.7391366,-122.63928
1224,Seabeck,47.6101945,-122.8529074
1225,Franklinville,42.3370091,-78.4580762
1226,North Houston,29.919902399999998,-95.5187206930984
1227,Nashport,40.0706231,-82.1756986
1228,Cypress,29.9691116,-95.6971686
1229,Sunriver,43.8839966,-121.438516
1230,Alto,44.1089458,8.003074
1231,SUNRISE,26.1666888,-80.2787573
1232,Belle Harbor,40.5767844,-73.84782868947303
1233,Muir,40.59231,-76.5185724
1234,Brocton,39.7155902,-87.9325327
1235,Galloway,39.9139207,-83.1633336
1236,Highland park,32.831563,-96.80077329849314
1237,North College Hill,39.2183911,-84.5507778
1238,Hunts Point,47.6434321,-122.230124
1239,Rockaway Beach,45.613598,-123.943147
1240,Nickelsville,36.752879,-82.4145931
1241,Hilliard,40.033814,-83.1596108
1242,Cuyahoga Falls,41.1348213,-81.4848086
1243,Mc Leansville,36.2138196,-79.686575
1244,San Lorenzo,42.3832108,9.287966
1245,Stanley,-51.6930616,-57.856525
1246,Mill Spring,37.0619953,-90.6840081
1247,Valencia,39.4697065,-0.3763353
1248,Waltham,42.3756401,-71.2358004
1249,Wake Forest,35.9803138,-78.5103731
1250,Box Canyon,44.3772054,-111.4053412
1251,Blasdell,42.797281,-78.823366
1252,Mesquite,32.7666103,-96.599472
1253,Rancho Park,34.0341731,-118.4262057
1254,Candler,32.4146577,-82.0930776
1255,Narrowsburg,41.6084397,-75.0604273
1256,Manchaca,30.1407692,-97.833055
1257,P C Beach,36.7553314,-76.0643995
1258,Burleson,30.4764878,-96.6353488
1259,Argyle,33.110156,-97.17975755365843
1260,Playa Vista,33.9760102,-118.4181654
1261,McGregor,31.4367029,-97.4080875
1262,Kilgore,32.3860733,-94.8758518
1263,Queen City,33.1487411,-94.150187
1264,Inglewood,33.9562003,-118.353132
1265,Silver Springs Shores,29.10125,-82.00649885265493
1266,Lindale,32.5156971,-95.4093998
1267,Scranton,41.4086874,-75.6621294
1268,Cambria Heights,40.6945474,-73.7384653
1269,Crockett,30.6517377,-101.3766686
1270,Springfield Gardens,40.678159,-73.746521
1271,San Gabriel,34.0990995,-118.1085554
1272,Morristown,40.7970382,-74.4809868
1273,NORTH PORT,27.044224,-82.2359254
1274,Little Valley,42.252563,-78.80559
1275,South Dayton,42.364227,-79.055595
1276,Sinclairville,42.263947,-79.258656
1277,Glouster,39.503126,-82.0845892
1278,Raven,37.1010845,-81.86195095764273
1279,Colonie,42.7178558,-73.8334554
1280,North Lauderdale,26.217305,-80.2258811
1281,REDINGTON BEACH,27.8086364,-82.811214
1282,Vergennes,37.902273,-89.3356432
1283,Apison,35.023964,-85.0238375
1284,Etsu,36.3022214,-82.36945750910178
1285,Dwarf,37.3350958,-83.1312813
1286,Margate,51.3878174,1.3819699
1287,Leander,30.5736134,-97.8567339
1288,Leetonia,40.8772816,-80.7553556
1289,OCOEE,28.5695186,-81.544117
1290,New york,40.7127281,-74.0060152
1291,Danube,45.1805755,20.19619
1292,Hyannis,41.6534847,-70.2823732
1293,Coulter,42.7368707,-93.3698315
1294,Seabrook,29.5633199,-95.019723
1295,Zanesville,39.9403453,-82.0131924
1296,GOLDEN OAK,28.4010325,-81.54079235539356
1297,MAITLAND,-32.7316683,151.5511123
1298,Redondo Beach,33.8455911,-118.3886766
1299,Pittsfield Twp,42.2103174,-83.7241068
1300,Eagle Rock,34.1390325,-118.2140958
1301,Smyrna,38.4224548,27.1310699
1302,San Fernando,36.4643934,-6.198203
1303,Allentown City,40.6042996,-75.46785423899848
1304,Ave,43.0089083,0.5707819
1305,Springdale,36.1867442,-94.1288142
1306,Brandywine,39.8295563,-75.5343681
1307,Springport,42.378372,-84.6985883
1308,Olivet,47.8650984,1.9015752
1309,Crooksville,39.7689573,-82.0920868
1310,Chapel Hill,35.9131542,-79.05578
1311,Shady Shores,33.1678563,-97.0298684
1312,Pyramid,-3.9201239,138.793738
1313,Rome,41.8933203,12.4829321
1314,City of Vista,-34.8358304,138.7308991
1315,Emmalena,37.3366744,-83.0766889
1316,Sea Ranch Lakes,26.2008949,-80.09817852601626
1317,BALDWIN,33.0869398,-83.2633216
1318,Northlake,41.9172526,-87.8956185
1319,Sunset Beach,54.7423237,-113.5366453
1320,Dripping Springs,30.1902067,-98.0866781
1321,Vermontville,42.6289247,-85.0241621
1322,Jonesborough,36.2944928,-82.4734089
1323,Newport Beach,33.6170092,-117.9294401
1324,Pete Beach,27.71367975,-82.73949111485409
1325,Jackson,32.3086744,-90.1983063
1326,Somerset,51.161750850000004,-3.0753867062227487
1327,Malba,10.470868750000001,-2.950334259642424
1328,Biscayne,17.7356223,-88.464846
1329,China Grove,29.3888459,-98.3489023
1330,Conover,35.7065004,-81.2184383
1331,Sumner,37.2435967,-97.4792142
1332,DACONO,40.0847062,-104.939421
1333,Salisbury,51.0690613,-1.7954134
1334,Ruston,32.5232053,-92.637927
1335,Fertile,43.2640892,-93.4201333
1336,Zionsville,39.950724,-86.2616968
1337,The Hills,-33.57530935,150.97101605203903
1338,East Palo Alto,37.4688273,-122.141075
1339,Waverly Hall,32.6833065,-84.7380141
1340,Grundy,41.2747363,-88.4119361
1341,Brooklyn Heights,40.696084850000005,-73.9950278391265
1342,Ft. Worth,32.753177,-97.3327459
1343,Havana,23.135305,-82.3589631
1344,Lake Suzy,27.0381125,-82.0370322
1345,Bonnyman,37.2898169,-83.2362862
1346,DALLAS,32.7762719,-96.7968559
1347,Frewsburg,42.0545029,-79.1581019
1348,Fairfield Twp.,41.76597615,-84.05900964165377
1349,Port St Lucie,27.2939333,-80.3503283
1350,Huntington,38.4192496,-82.445154
1351,Monkton,46.097995,-64.80011
1352,PINELLAS PARK,27.8428025,-82.6995444
1353,Leon Valley,29.4952307,-98.6186317
1354,Troutman,35.7005832,-80.8882314
1355,Mousie,37.4184323,-82.8782174
1356,Hopewell,37.3043154,-77.2872001
1357,Roy,41.1715361,-112.0273739
1358,Coral gables,25.72149,-80.2683838
1359,Orrtanna,39.8462765,-77.35778471439275
1360,Duncanville,32.6518004,-96.9083366
1361,Dania beach,26.0524224,-80.143929
1362,Leominster,42.5267443,-71.7614891
1363,East Flatbush,40.6537148,-73.9304151
1364,Kindred,46.648578,-97.017032
1365,Red Bank,40.3470543,-74.0643065
1366,Yeaddiss,37.0687041,-83.2176742
1367,Clint,36.4313389,-119.773469
1368,ST PETE,27.7712607,-82.6811023
1369,Kannapolis,35.4874708,-80.621438
1370,Tuckahoe,40.9503764,-73.827356
1371,Lutz,43.4367,1.7835
1372,Temescal Valley,33.762796,-117.485323
1373,Pacific,46.5334929,-123.768029
1374,Bensonhurst,40.6049772,-73.9934061
1375,Woodmere,40.6320482,-73.7126314
1376,New Plymouth,-39.0579941,174.0806474
1377,Del Valle,34.4194407,-118.656478
1378,North Syracuse,43.13479,-76.129924
1379,Rising Fawn,34.7600791,-85.531076
1380,Yarrow Pt,47.64621,-122.2173461
1381,Dowling,51.766667,-112.0
1382,Thurston,46.9319983,-122.8855155
1383,Dunn Loring,38.894646,-77.22944188099822
1384,Edwards,29.9116617,-100.3457636
1385,FORT MYERS,26.640628,-81.8723084
1386,Cape Haze,26.8503433,-82.2942613
1387,Saranac,42.9292232,-85.2129031
1388,Muskegon,43.2341813,-86.2483921
1389,Bessemer City,35.284733,-81.283906
1390,Valley Glen,34.1826379,-118.4138666
1391,SAINT PETE BEACH,27.7253065,-82.741212
1392,Neponsit,40.572873200000004,-73.86019612553424
1393,South Hero,44.645697,-73.3024759
1394,Superior Twp,42.3049933,-83.6041183
1395,Mukilteo,47.9474034,-122.3036992
1396,Fresh Meadows,40.7348246,-73.7934668
1397,Seaside,36.62593,-121.8169383456945
1398,Crouse,45.708923,7.1186558
1399,Grand Isle,44.706737,-73.3042618
1400,Hilshire Village,29.7907833,-95.4891081
1401,Morrisville,47.88338804999999,-55.76861996265019
1402,St Louis,38.6280278,-90.1910154
1403,Piney Flats,36.4195491,-82.3040262
1404,Berwyn Heights,38.9939991,-76.9105292
1405,Horizon,51.0877296,-113.9919091
1406,Tustin,33.7458511,-117.826166
1407,Seagoville,32.6447916,-96.5418608
1408,Roxbury,41.5568282,-73.3088922
1409,PT CHARLOTTE,26.982419999999998,-82.10688734598534
1410,Sherwood Forest,53.207869450000004,-1.0824054452014815
1411,Port Isabel,26.0734119,-97.2085844
1412,Kirkersville,39.9595081,-82.5957182
1413,Kearns,40.6597665,-111.9965997
1414,Lake View Terrace,34.2763908,-118.3611912
1415,Lamont,53.7834515,-112.4478142
1416,Bellerose Vlg,51.2171694,4.399097
1417,Coeburn,36.9439917,-82.4640401
1418,Columbia Twp,42.10957565,-84.28681073229657
1419,Belmond,42.8459977,-93.6143413
1420,Cane Ridge,39.7729142,-80.9055197
1421,Maple Valley,47.3664231,-122.0437127
1422,Dorchester Center,42.2917651,-71.0717173
1423,Eaton Park,28.0085839,-81.9075531
1424,Mayfield Hts,41.5192189,-81.457896
1425,Seminole,28.7225829,-81.2353683
1426,Marion Oaks,38.6978961,-76.5705134
1427,Rocky Point,40.9525987,-72.9253805
1428,South Bloomfield,39.7183962,-82.9868489
1429,Southside Place,29.7060634,-95.4368849
1430,Solvay,43.0581222,-76.2074263
1431,Lake Lure,35.4278969,-82.2048343
1432,Icard,35.7273539,-81.4706462
1433,Ponte Vedra Beach,30.2396865,-81.3856384
1434,Singleton,-32.5664044,151.1733972
1435,Prairie Grove,42.2786339,-88.2609184
1436,Canyon,34.9799429,-101.919197
1437,Clarksburg,39.2806451,-80.3445341
1438,Mt Washington,44.2704946,-71.3033045
1439,Laurel,37.1000973,-84.1148273
1440,Mount Gilead,40.5492265,-82.8274015
1441,Rushville,39.608756,-85.4469755
1442,Alvin,29.4238472,-95.2441009
1443,Seffner,27.998541000000003,-82.27488400225634
1444,Savage,44.7779041,-93.3356204
1445,Bow Mar,39.628321,-105.049984
1446,CHAMPIONS GATE,29.5601773,-98.6469718
1447,Perrysburg,41.5571178,-83.6279321
1448,Woodland,38.6786109,-121.7733285
1449,Shadow Hills,34.6524891,-117.4533837
1450,Hyden,37.1609254,-83.3732373
1451,La Pine,43.6703995,-121.503636
1452,Pharr,26.1947962,-98.1836216
1453,Coolidge,38.0416798,-102.0087927
1454,Highgate,51.5744322,-0.1526837
1455,Summerlin,36.1913172,-115.3018606
1456,Green Level,36.1209704,-79.3441861
1457,Iola,37.9244799,-95.3999814
1458,Guild,38.1451964,-121.2435579
1459,Rowlett,32.9029017,-96.56388
1460,North Bethesda,39.04064995,-77.12338890613549
1461,Huntingdon Valley,40.1226101,-75.0635049
1462,China Spring,31.6521492,-97.3078187
1463,Reston,38.953055899999995,-77.35021396591173
1464,Perdido Key,30.27823275,-87.53225740173426
1465,Edgewater,40.8270448,-73.975694
1466,Mulliken,42.762257,-84.8963815
1467,Elmira,42.0897965,-76.8077338
1468,Spicewood,30.4759222,-98.1566355
1469,Busy,47.1664915,5.9475142
1470,Homer,59.6440876,-151.5401477
1471,Spring Branch,29.8899389,-98.4252957
1472,Park Hills Heights,45.51552355,-122.7057111913291
1473,Quito Ecuador,-0.2201641,-78.5123274
1474,Farragut,40.7192038,-95.480941
1475,Williamsport,41.2493292,-77.0027671
1476,Palm City,27.1713925,-80.28422171034893
1477,Sanger,33.3631706,-97.1739028
1478,Vegas,18.1034915,-66.8738527
1479,Norwood,40.7055931,-89.6987129
1480,Bulan,0.976389,103.930833
1481,FAIRFIELD,39.7886111,-82.6418883
1482,East Ridge,35.0142412,-85.2519003
1483,Honaker,37.016222,-81.9742921
1484,Sammamish,47.6017554,-122.0416844
1485,Hedwig Village,29.7799318,-95.5187202
1486,Los Feliz L,34.1076561,-118.2875062
1487,Gaithersburg,39.1399187,-77.1929215
1488,Playa,23.0929028,-82.4543353
1489,SEATTLE,47.6038321,-122.330062
1490,Glassell Park,34.1161201,-118.2289627
1491,Powell,37.8192526,-83.8239902
1492,New Hudson,42.3164242,-78.2497251
1493,N Miami Beach,25.9331488,-80.1625463
1494,Lupton City,35.1057126,-85.2642639
1495,Keller,32.9299655,-97.2271249
1496,Dacono,40.0847062,-104.939421
1497,Canarsie,40.643715,-73.9006921
1498,Oak,37.72225915,-122.21701661553246
1499,Fletcher,44.6834039,-72.9142256
1500,Charlestown,43.2383483,-72.4247132
1501,Watkinsville,33.8628959,-83.4087709
1502,Sa,25.6242618,42.3528328
1503,Pounding Mill,37.0753922,-81.7087247
1504,Lewis Center,40.1983958,-83.0101843
1505,Troy,39.957373950000004,26.238017461011644
1506,ODESSA,46.4843023,30.7322878
1507,Gravesend,51.4424747,0.3694468
1508,Midlothian,55.833333,-3.083333
1509,Clifton,40.8584328,-74.1637553
1510,Westerville,40.126139,-82.9295287
1511,S.a.,40.07096355,-4.227172714273663
1512,Nora,59.533333,15.016667
1513,Freeland,46.6775057,-63.9629222
1514,New Carrollton,38.9698329,-76.8799727
1515,Leicester,52.6362,-1.1331969
1516,Mayfield Village,43.759996799999996,-79.78382000923554
1517,Sunrise Manor,36.1830875,-115.02796403836633
1518,Old Mill Basin,-36.845315400000004,174.76617391430105
1519,Cassadaga,42.344225,-79.309489
1520,Dolgeville,43.100983,-74.772949
1521,Meservey,42.9120163,-93.4780538
1522,E. New York,40.6667702,-73.8823583
1523,Drift,52.093764,5.1232113
1524,BELLE ISLE,28.462158,-81.3601068
1525,Asheville City,14.2742701,121.0726391
1526,Black Diamond,47.3083078,-122.0037583
1527,Grants Pass,42.4393707,-123.3272489
1528,Mountain Springs,36.0185311,-115.506861
1529,St. George,37.104153,-113.5841313
1530,Hernando County,28.5710156,-82.4605068
1531,DuPont,47.0990689,-122.637546
1532,Okahumpka,28.745642,-81.89620281659585
1533,Mangonia Park,26.760341,-80.0736529
1534,Granville,48.8376284,-1.5959213
1535,Romayor,30.4513173,-94.8432625
1536,Highland,57.5066357,-5.0038367
1537,Arden,49.69801175,4.671600518245179
1538,Swords Creek,37.0362229,-81.9179008
1539,Woodfin,35.633444,-82.5820725
1540,Alviso,37.426051,-121.9752373
1541,Hallsville,32.5043161,-94.5740934
1542,Cherry Valley,42.2392959,-88.9597115
1543,Pt Charlotte,26.982419999999998,-82.10688734598534
1544,Chestnut Hill,42.3306529,-71.1661647
1545,Lizella,32.8070842,-83.8199072
1546,Dante,43.0386053,-98.1842432
1547,WINTER PARK,28.5977707,-81.3510264
1548,Jeff,37.2050956,-83.136281
1549,Eagle Lake,29.5895382,-96.331239
1550,Palmyra,5.882204,-162.0748745
1551,Pleasanton,37.6624312,-121.8746789
1552,Emigration Canyon,40.770046,-111.7592783
1553,Elmwood Place,39.1872809,-84.4879985
1554,SPRING HILL,41.4117626,-93.6479872
1555,Liberty,30.0856736,-94.7856262
1556,CAPE HAZE,26.8503433,-82.2942613
1557,Spring Valley,29.7896722,-95.5035529
1558,Fultonham,39.8556235,-82.141532
1559,Bed-Stuy,40.6834364,-73.9412488
1560,Silver Creek,42.544225,-79.166707
1561,Lorena,48.71557405,6.142460196100687
1562,Mead,40.20279275,-104.97586196824028
1563,Matlacha Isles,26.6321215,-82.0628772159091
1564,Fulshear,29.690292,-95.8996261
1565,Fort Pierce,27.4467056,-80.3256056
1566,Breezy Point,46.6166305,-94.2169351
1567,Bermuda Dunes,33.7438202,-116.2863072
1568,Greenacres,26.623679,-80.1253213
1569,Browns Summit,36.2126351,-79.7136413
1570,Sharonville,39.2681145,-84.4132779
1571,Hollywood Hills East,34.1259913,-118.3441098
1572,Yarrow Point,47.64621,-122.2173461
1573,Geddes,43.0762244,-76.2251989
1574,Williamsburg,37.2708788,-76.7074042
1575,Newtown,52.5135785,-3.314371
1576,Schertz,29.5641617,-98.2695702
1577,Castle Hayne,34.3548975,-77.90655083435975
1578,El Cenizo,27.3320666,-99.5022294
1579,West Ashville,53.87542965,-1.7116318809139794
1580,Lake Los Angeles,34.6124905,-117.828119
1581,St. Johns,29.9032284,-81.4145468
1582,Rural Hall,36.2404158,-80.2933838
1583,Olalla,47.4305404,-122.5429467
1584,Lyon Township,44.48288685,-84.7928791358965
1585,Jarrell,30.8249094,-97.604454
1586,Anaheim Hills,33.8444082,-117.7773862
1587,Rio Hondo,26.2353516,-97.5819319
1588,Poteet,29.0391241,-98.5748412
1589,Hanoverton,40.7511704,-80.937032
1590,Ceresco,41.0572232,-96.6447377
1591,Blue Diamond,36.0463715,-115.4056336
1592,Fairfax Station,38.800859,-77.3256803
1593,Kimberlin Heights,35.9306418,-83.7512873
1594,Selma,32.4078632,-87.0207473
1595,Pt Arthur,29.8988618,-93.9288723
1596,San Leon,29.4867411,-94.9215842
1597,Dows,42.6563906,-93.5009286
1598,BRANDON,46.35270835,4.577608667704116
1599,Taylor Landing,29.8727741,-94.142959
1600,Point Richmond,37.9240915,-122.3891383
1601,Johns,63.7268294,-144.87765
1602,White Plains,41.0339862,-73.7629097
1603,Whallonsburg,44.2642179,-73.4029061
1604,Accokeek,38.6622843,-76.99103330833354
1605,Magna,44.0057213,-79.42933068302362
1606,Flatbush,40.6520481,-73.959027
1607,Mendota,44.8871878,-93.1643869
1608,Encinal,28.0406329,-99.3552096
1609,Santa Fe,-30.3154739,-61.1645076
1610,Arrington,52.1349573,-0.062922
1611,Ochlocknee,30.9737997,-84.0529518
1612,San Benito,36.6248089,-121.1177379
1613,Thompson,55.743347,-97.863464
1614,Lisle,45.2787444,0.5481384
1615,Kenwood,39.2085138,-84.3729937792351
1616,Saint Lucie West,27.32466685,-80.37697714629803
1617,Lake worth,32.8048507,-97.44502
1618,Caldwell,29.8298971,-97.5959641
1619,Bexar Co,29.4263987,-98.5104781
1620,Los Altos Hills,37.3796627,-122.137463
1621,Sunset Valley,30.2258039,-97.8149651
1622,New Albany,38.2856247,-85.8241312
1623,Kagel Canyon,34.3059874,-118.3780976
1624,South Houston,29.663008,-95.2354902
1625,Sansom Park,32.8059619,-97.4030744
1626,Walton Hills,41.36561,-81.561232
1627,FORT COLLINS,40.5508527,-105.0668085
1628,Virginia Gardens,25.8103758,-80.3022732
1629,Suwannee,30.2101192,-82.9873377
1630,Opa-Locka,25.9023168,-80.2503271
1631,Alys Beach,30.2841326,-86.030005
1632,Pierce Township,41.8509625,-88.6584071753341
1633,Elizabethton,36.3487756,-82.2107617
1634,Hyde Park,51.5074889,-0.16223668308067218
1635,NASHVILLE,36.1622767,-86.7742984
1636,Cuyahoga,41.4301347,-81.6905558
1637,Jamaica Estates,33.5334686,-82.1234523
1638,Lorton,38.700202000000004,-77.23953597604464
1639,Highway 30,41.3308942,-97.6282141
1640,Newfane,42.9856359,-72.6559259
1641,Sassafras,-35.0816667,150.2511111
1642,Bonaire,12.167,-68.28764385602938
1643,RIVERVIEW,46.0612076,-64.8033246
1644,Sloan,42.2330049,-96.2279425
1645,Lincoln,40.8088861,-96.7077751
1646,Labelle,46.279106,-74.732094
1647,Rockbridge,37.8331804,-79.4622597
1648,Botines,27.756401,-99.4378101
1649,Redford Township,42.3945469,-83.2953927
1650,Hillsborough,27.9184543,-82.3488057
1651,Lincoln Heights,39.2389469,-84.4554979
1652,Gerlach,49.1640319,20.1340595
1653,Leona valley,34.618321,-118.288133
1654,Gulf Hammock,29.1788551,-83.0081768
1655,Sheepshead Bay,40.5912161,-73.9445822
1656,Whitsett,40.1042402,-79.7505974
1657,Shasta,40.7965121,-121.9979194
1658,Sunset Park,40.644337,-74.007532
1659,Merrifield,38.876757,-77.24329722907368
1660,Brookline,42.3317642,-71.1211635
1661,Golden Acres,41.12925505,-85.05955323766713
1662,EDGEWATER,40.8270448,-73.975694
1663,Sundance,44.4064017,-104.375895
1664,Winchester,51.0612766,-1.3131692
1665,Candor,49.626539,2.8935199
1666,New Straitsville,39.577847,-82.2376489
1667,Nolanville,31.0787888,-97.6055694
1668,Eaton Rapids,42.5092039,-84.655814
1669,Tega Cay,35.024312,-81.0278546
1670,Grand prairie,32.7459645,-96.9977846
1671,Richwood,29.0560789,-95.4099403
1672,Piedmont,45.060735,7.923549
1673,Rockwell,42.9850635,-93.1881341
1674,Glenn Dale,38.9835145,-76.79799706150979
1675,Jacinto City,29.7673433,-95.2336723
1676,Milpitas,37.4332273,-121.8989248
1677,Lily Dale,42.3517246,-79.3242113
1678,Sherman Vlg,51.1023793,5.1813339
1679,Dimondale,42.6455931,-84.648949
1680,Nome,64.4989922,-165.39879944316317
1681,Langley,48.3604648,6.3258262
1682,Biola,36.800467499999996,-120.02009155128206
1683,Lehigh acres,26.6091509,-81.652407
1684,Fairmount Heights,38.9011623,-76.9116989
1685,Bensalem,40.1045549,-74.951279
1686,Allston,42.3555375,-71.1327494
1687,Kennedy,48.641925,-96.9089482
1688,Wrightsville Beach,34.2079917,-77.7955907
1689,SAINT JOHNS,29.9032284,-81.4145468
1690,Dunedin,-45.8740984,170.5035755
1691,Kendall,29.943885,-98.7258845
1692,McDowell,35.6608869,-82.0482171
1693,Junction City,39.0286093,-96.8313978
1694,Quartz Hill,34.6452645,-118.2181308
1695,Leburn,37.3481539,-82.9551631
1696,Stanwood,41.8927197,-91.1502842
1697,Security,34.060294,-117.5872399
1698,Downs,40.39698,-88.8706291
1699,EVERGREEN,31.4334994,-86.9569176
1700,Shiro,30.6120797,-95.8892168
1701,Brant,43.1010804,-80.4288217
1702,Dixie,29.6214008,-83.17351
1703,Jonesville,40.1123821,-121.4671946
1704,CHARLOTTE,35.2272086,-80.8430827
1705,St Albans City,51.7504966,-0.3276687
1706,Bullard,32.1403019,-95.3221898
1707,Paradise,36.1150858,-115.173414
1708,New Waterford,46.2483846,-60.0873491
1709,ALTAMONTE SPRINGS,28.6619154,-81.3885899
1710,Mayfield,36.7413624,-88.6352595
1711,Grapevine,32.9337381,-97.0788754
1712,Lawrenceville,33.9566391,-83.9890066
1713,JEFFERSON,29.834772,-94.1704496
1714,Millican,30.4674003,-96.2019014
1715,Hollis Hills,42.748907,-71.56713227635393
1716,Northfield Twp,42.3867084,-83.7211422
1717,Mill Basin,40.6098325,-73.9075848
1718,Outside Area (Outside Ca),39.1424077,-121.67404526753472
1719,Temple hills,38.81050355,-76.95000596047004
1720,Seal Beach,33.7423967,-118.1055926
1721,Poughkeepsie City,41.7070397,-73.9380244
1722,Poway,32.9628234,-117.035864
1723,Harmony,43.555189,-92.010176
1724,North port,27.044224,-82.2359254
1725,Briaroaks,32.5034724,-97.3050152
1726,Fulton,40.4714305,-90.1845556
1727,Normal,40.5092961,-88.9843937
1728,De Witt,41.8236361,-90.5382696
1729,Harvey,38.0352315,-97.4486267
1730,Millwood,31.2657632,-82.660419
1731,Bryant,40.4661513,-90.0917851
1732,Longvi,49.5145564,5.7679082
1733,Lone Oak,32.9951661,-95.9419408
1734,Princeton,40.3492744,-74.6592958
1735,Lauderdale By the Sea,26.192028,-80.0964326
1736,Collierville,35.042036,-89.6645266
1737,Sheffield,53.3806626,-1.4702278
1738,Wayland,41.1472063,-91.6608311
1739,Cypress Hills,40.6770477,-73.8912474
1740,County Los Angeles,34.0536909,-118.242766
1741,Union City,37.5963232,-122.0816297
1742,EDGEWOOD,42.6444914,-91.4011118
1743,Mission,26.2159066,-98.3252932
1744,Rowe,42.6952381,-72.8984799
1745,Zapata,26.9879626,-99.1673556
1746,Lantana,33.09400855,-97.12451323514898
1747,Valrico,27.9484265,-82.23621545220522
1748,Fort Hancock,40.4639965,-74.0026389
1749,Bellmead,31.5940545,-97.1088903
1750,Great Falls,47.5048851,-111.29189
1751,Homecrest,42.090786,-80.08717116309987
1752,New Hanover,34.2751052,-77.8818627
1753,Stony Point,41.2295386,-73.9870847
1754,East Durham,42.3725828,-74.0956914
1755,Elmo,35.6793999,-119.3303899
1756,East Liverpool,40.6186756,-80.5772928
1757,Bee Caves,30.3101272,-97.9112844
1758,Morningside,55.9296409,-3.2100796
1759,Merigold,33.8389667,-90.7262899
1760,Britt,43.096967,-93.8019285
1761,Rosharon,29.3521203,-95.460341
1762,Mansfield,40.75839,-82.5154471
1763,Spring Hope,35.9451536,-78.1119345
1764,Bonita,32.664798,-117.01596176077473
1765,Quincy,42.2509914,-71.0037374
1766,Burtonsville,39.1096795,-76.93049275520698
1767,ANN ARBOR,42.2681569,-83.7312291
1768,New Hope,45.0347176,-93.3861037
1769,Mabank,32.397251350000005,-96.16790108665323
1770,Rio Bravo,27.3641887,-99.4800415
1771,Columbia Township,42.10957565,-84.28681073229657
1772,Saint Bernard,47.15684,5.01564
1773,Iron Station,35.4415237,-81.1561898
1774,Starksboro,44.2273281,-73.0568483
1775,Swartz Creek,42.9572508,-83.8305144
1776,Eastvale,33.9747067,-117.566541
1777,Advance,37.1044958,-89.9106494
1778,Boston (Dorchester),42.2973205,-71.0744952
1779,Green Acres,36.5787498,-79.3502992
1780,Sea Gate,40.57674,-74.00752080668272
1781,Underhill,44.507546,-72.8987665
1782,Fleming Island,57.7904509,-136.3199143
1783,Urbana,40.1117174,-88.207301
1784,St Unit,-10.968431899999999,-37.061257420720096
1785,Fort wayne,41.0799898,-85.1386015
1786,Cedar Valley,35.8665316,-97.5617295
1787,White Oak,32.5271582,-94.8609684
1788,Eggertsville,42.9635834,-78.8042021
1789,Lower East Side,40.7159357,-73.9868057
1790,mcallen,26.204114,-98.2300605
1791,Willsboro,44.357488,-73.392105
1792,Jamaica Plain,42.3116046,-71.1143838
1793,Roans Prairie,30.5836549,-95.943324
1794,Cheney,47.9073765,3.9477501
1795,Prunedale,36.7851358,-121.666641
1796,Saugus,42.4648183,-71.010051
1797,Lake View Ter,34.2763908,-118.3611912
1798,Idyllwild,33.7402774,-116.7189424
1799,PROVO,40.2337289,-111.6587085
1800,Clarion,41.1818771,-79.429169
1801,Graysville,33.68199,-86.96699923799127
1802,Madeira,32.751750099999995,-16.98174865726062
1803,Vinings,33.8648262,-84.4643744
1804,Bonsall,33.276247999999995,-117.1996207741447
1805,Garrett Park,39.0342764,-77.0951454
1806,Cascade,47.3271465,-111.3281242
1807,Little Elm,33.1626194,-96.9375051
1808,Onon Hill,42.7892433,-73.9523467
1809,Splendora,30.2329914,-95.1610438
1810,West Barnstable,41.7056644,-70.3744687
1811,Commercial Point,39.7683959,-83.0571297
1812,Glenwillow,41.361721,-81.46956
1813,Cottonwood,44.019068,-95.1658845
1814,Delhi,28.6273928,77.1716954
1815,Emmett Township,43.0289035,-82.81108959927309
1816,Apopka,28.678013,-81.511398
1817,Lake Oswego,45.4206749,-122.670649
1818,City Center,37.0873163,-76.4730082
1819,East Harlem,40.7947222,-73.9425
1820,Buels Gore,44.2188802,-72.9544831
1821,Marion,32.7931661,-94.344488
1822,Laguna Vista,26.1009111,-97.2902543
1823,Lake Villa,42.4169651,-88.0739708
1824,Bay Harbor Is,25.8523184,-80.1572685
1825,South Ogden,41.1912782,-111.9678627
1826,Gerry,42.193392,-79.248658
1827,Pavo,30.9595529,-83.73786064660365
1828,Union Grove,32.579757,-94.91572509463055
1829,Crown Heights,40.667471,-73.9435662
1830,New Springfield,40.917222,-80.6058743
1831,Tekonsha,42.0933791,-84.9858051
1832,SPRINGFIELD,39.7990175,-89.6439575
1833,Weatherford,32.7589648,-97.7970748
1834,Indian Shores,27.862801,-82.8484373
1835,Crestline,34.2495525,-117.29389561188812
1836,Palm Beach Gardens,26.8233946,-80.1386547
1837,Smithville,30.0056275,-97.1559077
1838,Opa-locka,25.9023168,-80.2503271
1839,Hide A Way Hills,35.9389564,-85.0569028
1840,Jackson Township,44.7585435,-93.56822012565493
1841,Hastings On Hudson,40.9946622,-73.8785922
1842,Silver Lakes,34.74481675,-117.34367811903809
1843,Park Slope,40.6701033,-73.9859723
1844,Saint louis,38.6280278,-90.1910154
1845,Cheverly,38.928167,-76.915807
1846,Hallandale Beach,25.9812025,-80.148379
1847,Manvel,29.4664706,-95.355714
1848,Bonita springs,26.339806,-81.7786972
1849,Hollywood Hills,34.1216903,-118.3465777
1850,Hueysville,37.4951104,-82.843615
1851,West Panama City Beach,30.1765914,-85.8054879
1852,Glade Park,38.9937597,-108.7406995
1853,La Marque,29.3685674,-94.9713134
1854,Jc,49.0864548,14.600172741470452
1855,Erie County,42.18230345,-80.1410773337322
1856,Cotuit,41.6167808,-70.436975
1857,Shawnee,39.0273676,-95.7627535
1858,CARROLLWOOD,28.059017599999997,-82.51339612827047
1859,JOHNSON CITY,36.3134398,-82.3534728
1860,Pembroke Park,25.9878691,-80.1747687
1861,St Pete,27.7712607,-82.6811023
1862,Forest Park,41.8794989,-87.8136997
1863,College Grove,32.3868049,-86.2255225
1864,Celoron,42.109494,-79.2831684
1865,Saratoga,43.0833231,-73.8712155
1866,Del Sur,34.6897069,-118.2886882
1867,Newhall,41.994547,-91.96739
1868,Shaker Hts,41.4739419,-81.5370671
1869,Lakewood Twp.,40.0978929,-74.2176435
1870,Herkimer Ny,43.4911326,-74.9481252
1871,Rogers,36.3781607,-95.6190889
1872,HIALEAH,25.8575963,-80.2781057
1873,South lyon,42.451377,-83.659179
1874,Maitland,-32.7316683,151.5511123
1875,Fort Ogden,27.0872769,-81.9523079
1876,Lennox,33.9390306,-118.3574427
1877,Bville,43.15958725,-76.32800345605142
1878,Spring City,35.692015,-84.8607801
1879,Mount Hamilton,37.3418834,-121.6430017
1880,Chinatown,40.7164913,-73.9962504
1881,Bonny Doon,37.0416156,-122.1505224
1882,Rogersville,34.8256204,-87.2945325
1883,Jefferson Count,38.114819,-85.872441
1884,Venus,32.4334742,-97.1025077
1885,Colbert,34.6473396,-87.7921769
1886,Winona,43.9582272,-91.7807784
1887,Dungannon,54.5039088,-6.7703622
1888,Dolton,41.6389236,-87.607268
1889,Highland Village,33.091788,-97.0466759
1890,Hawley,32.6133723,-99.8130377
1891,White Cottage,39.8717345,-82.0976412
1892,Chautauqua County,42.2894671,-79.421728
1893,Mem,35.04625645,-89.97689466513185
1894,Town 'N' Country,28.0041425,-82.57021921991026
1895,Los Altos,42.7811566,-3.620209626541331
1896,Wylie,33.0151561,-96.5388038
1897,Vestal,42.0850703,-76.053813
1898,Rollingwood,30.2742428,-97.7855814
1899,Fallbrook,33.3764196,-117.2511466
1900,Maple Springs,33.3556695,-95.0054941
1901,Mount Pleasant,33.1570582,-94.9694007
1902,Boerne,29.7946641,-98.7319703
1903,La Moca,18.0585776,-66.6959737
1904,South pasadena,34.1133062,-118.1478291
1905,Indian Orchard,42.1584269,-72.4995308
1906,Citrus Heights,38.7071247,-121.2810611
1907,Leland,34.2203056,-78.0335992
1908,Montclair,40.8164458,-74.2210643
1909,Strawberry Plains,36.0631414,-83.686011
1910,Lee Township,42.459553549999995,-86.07078414695061
1911,Nyc,40.7127281,-74.0060152
1912,West Los Angeles,34.0468546,-118.430254
1913,Foreign Country,43.4122248,-80.4510059
1914,Locka,-16.2094149,-69.0845003
1915,Great Neck,40.8006567,-73.7284647
1916,Wolfforth,33.5059189,-102.009057
1917,Roslindale,42.2912093,-71.1244966
1918,Northville,42.4310816,-83.4832339
1919,Hillsboro Beach,26.2939687,-80.0789318
1920,Riverside Pkwy,39.4771609,-76.2418464
1921,Sugar Land,29.6196787,-95.6349463
1922,Galena,42.4157304,-90.4294726
1923,Old Brooklyn,41.4336594,-81.7039035
1924,Lacy Lakeview,31.6302815,-97.0989316
1925,Ocoee,28.5695186,-81.544117
1926,AVENTURA,25.9564812,-80.1392121
1927,Micanopy,29.5045307,-82.27959
1928,Umatilla,45.6416995,-118.7671122
1929,LAKE BUENA VISTA,28.38034955,-81.5297578369267
1930,Noblesville,40.0455918,-86.0085955
1931,SAND LAKE,42.6373017,-73.5406697
1932,Eads,38.4805615,-102.7818629
1933,Indianola,33.4509513,-90.6550917
1934,City Beach,-31.9364674,115.7599058
1935,Jefferson,29.834772,-94.1704496
1936,Midwood,40.6188823,-73.9654889
1937,Springs,41.0162112,-72.1592444
1938,San Jacinto,30.5083577,-95.1902362
1939,Birchleaf,37.1773311,-82.2720868
1940,San Leandro,37.7249296,-122.1560768
1941,Ijames Church Rd,35.9355164,-80.6363158
1942,Eagle Mountain,42.0620352,-74.50932
1943,Lone Tree,49.1332913,-108.2203825
1944,Krypton,37.3112042,-83.3393462
1945,TACOMA,47.2455013,-122.438329
1946,Lake Forest,42.2586461,-87.8407055
1947,Severance,39.7672208,-95.2499751
1948,Angola,-11.8775768,17.5691241
1949,BEND,44.0581728,-121.3153096
1950,Phila,24.36727,74.0615415
1951,Midkiff,38.1762028,-82.178751
1952,Mallie,30.47568145,-90.0913795579136
1953,DORAL,25.8195424,-80.3553302
1954,Mt Lebanon,34.29,36.092
1955,Plato Center,42.0266929,-88.4300818
1956,Solitude,48.8201655,2.1087663
1957,Ellery,42.2072546,-79.3559218
1958,Indian Creek Village,45.6986302,-121.51891851606278
1959,Highlands,56.8,-5.0
1960,Sparr,29.3385846,-82.1125927
1961,Winter Garden,28.5656649,-81.5856742
1962,Imperial,33.0305487,-115.3595666
1963,Cunningham,37.6439067,-98.4311883
1964,Pueblo Nuevo,20.54810825,-101.3656228324851
1965,Cuyahoga Heights,41.4271001,-81.6414489
1966,Largo,27.9094665,-82.7873244
1967,Freedom,44.53078,-69.298325
1968,Woodville,34.6278654,-86.2744286
1969,Phillips Ranch,48.0333303,-108.094015
1970,Mount Carmel,38.4108801,-87.7614174
1971,LAUDERDALE BY THE SEA,26.192028,-80.0964326
1972,Morganton,35.7454291,-81.6870837
1973,Pooler,32.1158983,-81.2495131
1974,DAVENPORT,41.5235808,-90.5770967
1975,Van Buren Point,42.4489464,-79.4183789
1976,CONIFER,39.5233424,-105.305499
1977,Price,45.676627,-90.368792
1978,Town North Country,43.1645898,-74.480535
1979,Provo Canyon,40.269528550000004,-111.639243615036
1980,Oviedo,43.3604218,-5.8450534
1981,Gettysburg,39.8308973,-77.231012
1982,Evans,32.1613648,-81.8980725
1983,Wooton,52.8420105,-2.979842
1984,Gratiot,43.2903117,-84.6098023
1985,Topmost,37.3863602,-82.7871778
1986,Shillington,51.9934511,-0.3595323
1987,Willow Spring,34.6700217,-112.863239
1988,Baldwin Hills,34.0146113,-118.3603104
1989,Yarmouth Pt,41.7020544,-70.249465
1990,Rainbow Valley,33.2319897,-112.3871008
1991,Bedford Hts,41.4143826,-81.5061146
1992,HAINES CITY,28.1067315,-81.6287423
1993,Blue Springs,39.017316,-94.282265
